{"type": "FeatureCollection", "features": [{"type": "Feature", "properties": {"station_id": "7000", "name": "Fort York  Blvd / Capreol Ct", "address": "Fort York  Blvd / Capreol Ct", "capacity": 35, "rental_methods": ["KEY", "TRANSITCARD", "CREDITCARD", "PHONE"], "physical_configuration": "REGULAR", "altitude": 0.0, "groups": [], "obcn": "647-643-9607", "nearby_distance": 500.0}, "geometry": {"type": "Point", "coordinates": [-79.395954, 43.639832]}}, {"type": "Feature", "properties": {"station_id": "7001", "name": "Wellesley Station Green P", "address": "Yonge / Wellesley", "capacity": 26, "rental_methods": ["KEY", "TRANSITCARD", "CREDITCARD", "PHONE"], "physical_configuration": "ELECTRICBIKESTATION", "altitude": 0.0, "groups": [], "obcn": "416-617-9576", "nearby_distance": 500.0}, "geometry": {"type": "Point", "coordinates": [-79.38355031526893, 43.66496415990742]}}, {"type": "Feature", "properties": {"station_id": "7002", "name": "St. George St / Bloor St W", "address": "St. George St / Bloor St W", "capacity": 19, "rental_methods": ["KEY", "TRANSITCARD", "CREDITCARD", "PHONE"], "physical_configuration": "REGULAR", "altitude": 0.0, "groups": [], "obcn": "647-643-9615", "nearby_distance": 500.0}, "geometry": {"type": "Point", "coordinates": [-79.399429, 43.667333]}}, {"type": "Feature", "properties": {"station_id": "7003", "name": "Madison Ave / Bloor St W", "address": "Madison Ave / Bloor St W", "capacity": 15, "rental_methods": ["KEY", "TRANSITCARD", "CREDITCARD", "PHONE"], "physical_configuration": "REGULAR", "altitude": null, "groups": [], "obcn": "647-631-4587", "nearby_distance": 500.0}, "geometry": {"type": "Point", "coordinates": [-79.402761, 43.667158]}}, {"type": "Feature", "properties": {"station_id": "7004", "name": "University Ave / Elm St", "address": "University Ave / Elm St", "capacity": 11, "rental_methods": ["KEY", "TRANSITCARD", "CREDITCARD", "PHONE"], "physical_configuration": "REGULAR", "altitude": null, "groups": ["P7004-7047"], "obcn": "647-643-9673", "nearby_distance": 500.0}, "geometry": {"type": "Point", "coordinates": [-79.389099, 43.656518]}}, {"type": "Feature", "properties": {"station_id": "7005", "name": "King St W / York St", "address": "King St W / York St", "capacity": 19, "rental_methods": ["KEY", "TRANSITCARD", "CREDITCARD", "PHONE"], "physical_configuration": "REGULAR", "altitude": 0.0, "groups": [], "obcn": "647-643-9693", "nearby_distance": 500.0}, "geometry": {"type": "Point", "coordinates": [-79.383177, 43.6480008]}}, {"type": "Feature", "properties": {"station_id": "7006", "name": "Bay St / College St (East Side)", "address": "Bay St / College St (East Side)", "capacity": 19, "rental_methods": ["KEY", "TRANSITCARD", "CREDITCARD", "PHONE"], "physical_configuration": "REGULAR", "altitude": 0.0, "groups": ["P7006-7235"], "obcn": "416-569-2349", "nearby_distance": 500.0}, "geometry": {"type": "Point", "coordinates": [-79.385525, 43.660439]}}, {"type": "Feature", "properties": {"station_id": "7007", "name": "College St / Huron St", "address": "College St / Huron St", "capacity": 19, "rental_methods": ["KEY", "TRANSITCARD", "CREDITCARD", "PHONE"], "physical_configuration": "REGULAR", "altitude": 0.0, "groups": [], "obcn": "647-625-3582", "nearby_distance": 500.0}, "geometry": {"type": "Point", "coordinates": [-79.398167, 43.658148]}}, {"type": "Feature", "properties": {"station_id": "7008", "name": "Wellesley St / Queen's Park Cres", "address": "Wellesley St W / Queen's Park Cres", "capacity": 19, "rental_methods": ["KEY", "TRANSITCARD", "CREDITCARD", "PHONE"], "physical_configuration": "REGULAR", "altitude": 0.0, "groups": [], "obcn": "647-643-9648", "nearby_distance": 500.0}, "geometry": {"type": "Point", "coordinates": [-79.392125, 43.663376]}}, {"type": "Feature", "properties": {"station_id": "7009", "name": "King St E / Jarvis St", "address": "King St E / Jarvis St", "capacity": 25, "rental_methods": ["KEY", "TRANSITCARD", "CREDITCARD", "PHONE"], "physical_configuration": "REGULAR", "altitude": 0.0, "groups": [], "obcn": "647-620-8649", "nearby_distance": 500.0}, "geometry": {"type": "Point", "coordinates": [-79.372287, 43.650325]}}, {"type": "Feature", "properties": {"station_id": "7010", "name": "King St W / Spadina Ave", "address": "King St W / Spadina Ave", "capacity": 19, "rental_methods": ["KEY", "TRANSITCARD", "CREDITCARD", "PHONE"], "physical_configuration": "REGULAR", "altitude": 0.0, "groups": [], "obcn": "647-202-6537", "nearby_distance": 500.0}, "geometry": {"type": "Point", "coordinates": [-79.395003, 43.645323]}}, {"type": "Feature", "properties": {"station_id": "7012", "name": "Elizabeth St / Edward St (Bus Terminal)", "address": "Elizabeth St / Edward St (Bus Terminal)", "capacity": 15, "rental_methods": ["KEY", "TRANSITCARD", "CREDITCARD", "PHONE"], "physical_configuration": "REGULAR", "altitude": 0.0, "groups": [], "obcn": "647-643-9665", "nearby_distance": 500.0}, "geometry": {"type": "Point", "coordinates": [-79.385327, 43.656026]}}, {"type": "Feature", "properties": {"station_id": "7014", "name": "Sherbourne St / Carlton St (Allan Gardens)", "address": "Sherbourne St / Carlton St (Allan Gardens)", "capacity": 17, "rental_methods": ["KEY", "TRANSITCARD", "CREDITCARD", "PHONE"], "physical_configuration": "REGULAR", "altitude": 0.0, "groups": [], "obcn": "416-710-6764", "nearby_distance": 500.0}, "geometry": {"type": "Point", "coordinates": [-79.373181, 43.663102]}}, {"type": "Feature", "properties": {"station_id": "7015", "name": "King St W / Bay St (West Side)", "address": "King St W / Bay St (West Side)", "capacity": 39, "rental_methods": ["KEY", "TRANSITCARD", "CREDITCARD", "PHONE"], "physical_configuration": "REGULAR", "altitude": 0.0, "groups": [], "obcn": "416-671-7595", "nearby_distance": 500.0}, "geometry": {"type": "Point", "coordinates": [-79.380576, 43.64852]}}, {"type": "Feature", "properties": {"station_id": "7016", "name": "Bay St / Queens Quay W (Ferry Terminal)", "address": "Bay St / Queens Quay W (Ferry Terminal)", "capacity": 23, "rental_methods": ["KEY", "TRANSITCARD", "CREDITCARD", "PHONE"], "physical_configuration": "REGULAR", "altitude": 0.0, "groups": [], "obcn": "647-271-1378", "nearby_distance": 500.0}, "geometry": {"type": "Point", "coordinates": [-79.376785, 43.640978]}}, {"type": "Feature", "properties": {"station_id": "7018", "name": "Bremner Blvd / Rees St", "address": "Bremner Blvd / Rees St", "capacity": 23, "rental_methods": ["KEY", "TRANSITCARD", "CREDITCARD", "PHONE"], "physical_configuration": "REGULAR", "altitude": 0.0, "groups": [], "obcn": "647-669-0947", "nearby_distance": 500.0}, "geometry": {"type": "Point", "coordinates": [-79.386741, 43.641529]}}, {"type": "Feature", "properties": {"station_id": "7020", "name": "Phoebe St / Spadina Ave", "address": "Phoebe St / Spadina Ave", "capacity": 33, "rental_methods": ["KEY", "TRANSITCARD", "CREDITCARD", "PHONE"], "physical_configuration": "REGULAR", "altitude": null, "groups": [], "obcn": "647-621-5766", "nearby_distance": 500.0}, "geometry": {"type": "Point", "coordinates": [-79.396555, 43.650033]}}, {"type": "Feature", "properties": {"station_id": "7021", "name": "Bay St / Albert St", "address": "Bay St / Albert St", "capacity": 35, "rental_methods": ["KEY", "TRANSITCARD", "CREDITCARD", "PHONE"], "physical_configuration": "REGULAR", "altitude": 0.0, "groups": [], "obcn": "647-643-9652", "nearby_distance": 500.0}, "geometry": {"type": "Point", "coordinates": [-79.382458, 43.653264]}}, {"type": "Feature", "properties": {"station_id": "7022", "name": "Simcoe St / Queen St W", "address": "Simcoe St / Queen St W", "capacity": 39, "rental_methods": ["KEY", "TRANSITCARD", "CREDITCARD", "PHONE"], "physical_configuration": "REGULAR", "altitude": null, "groups": [], "obcn": "647-625-3265", "nearby_distance": 500.0}, "geometry": {"type": "Point", "coordinates": [-79.3873, 43.65049]}}, {"type": "Feature", "properties": {"station_id": "7023", "name": "College St / Borden St", "address": "College St / Borden St", "capacity": 11, "rental_methods": ["KEY", "TRANSITCARD", "CREDITCARD", "PHONE"], "physical_configuration": "REGULAR", "altitude": 0.0, "groups": ["P7023-7078"], "obcn": "647-643-9629", "nearby_distance": 500.0}, "geometry": {"type": "Point", "coordinates": [-79.4056, 43.6571]}}, {"type": "Feature", "properties": {"station_id": "7024", "name": "Dundonald St / Church St", "address": "Dundonald St / Church St", "capacity": 36, "rental_methods": ["KEY", "TRANSITCARD", "CREDITCARD", "PHONE"], "physical_configuration": "REGULAR", "altitude": 0.0, "groups": ["P7241-7024"], "obcn": "647-631-9859", "nearby_distance": 500.0}, "geometry": {"type": "Point", "coordinates": [-79.38148, 43.66663]}}, {"type": "Feature", "properties": {"station_id": "7025", "name": "Ted Rogers Way / Bloor St E", "address": "Ted Rogers Way / Bloor St E", "capacity": 23, "rental_methods": ["KEY", "TRANSITCARD", "CREDITCARD", "PHONE"], "physical_configuration": "REGULAR", "altitude": 0.0, "groups": [], "obcn": "647-631-9970", "nearby_distance": 500.0}, "geometry": {"type": "Point", "coordinates": [-79.380471, 43.671293]}}, {"type": "Feature", "properties": {"station_id": "7026", "name": "Bay St / St. Joseph St", "address": "Bay St / St. Joseph St", "capacity": 15, "rental_methods": ["KEY", "TRANSITCARD", "CREDITCARD", "PHONE"], "physical_configuration": "REGULAR", "altitude": null, "groups": ["P7274-7026"], "obcn": "416-666-0783", "nearby_distance": 500.0}, "geometry": {"type": "Point", "coordinates": [-79.387499, 43.665527]}}, {"type": "Feature", "properties": {"station_id": "7027", "name": "Beverley  St / Dundas St W", "address": "Beverley  St / Dundas St W", "capacity": 31, "rental_methods": ["KEY", "TRANSITCARD", "CREDITCARD", "PHONE"], "physical_configuration": "REGULAR", "altitude": 0.0, "groups": [], "obcn": "647-621-6739", "nearby_distance": 500.0}, "geometry": {"type": "Point", "coordinates": [-79.393388, 43.652823]}}, {"type": "Feature", "properties": {"station_id": "7028", "name": "Gould St / Mutual St", "address": "Gould St / Mutual St", "capacity": 31, "rental_methods": ["KEY", "TRANSITCARD", "CREDITCARD", "PHONE"], "physical_configuration": "REGULAR", "altitude": null, "groups": [], "obcn": "416-560-7261", "nearby_distance": 500.0}, "geometry": {"type": "Point", "coordinates": [-79.3768, 43.6582]}}, {"type": "Feature", "properties": {"station_id": "7029", "name": "Bay St / Bloor St W (East Side)", "address": "1199 Bay St", "capacity": 15, "rental_methods": ["KEY", "TRANSITCARD", "CREDITCARD", "PHONE"], "physical_configuration": "REGULAR", "altitude": 0.0, "groups": [], "obcn": "647-669-3457", "nearby_distance": 500.0}, "geometry": {"type": "Point", "coordinates": [-79.38915, 43.66943]}}, {"type": "Feature", "properties": {"station_id": "7030", "name": "Bay St / Wellesley St W", "address": "Bay St / Wellesley St W", "capacity": 51, "rental_methods": ["KEY", "TRANSITCARD", "CREDITCARD", "PHONE"], "physical_configuration": "REGULAR", "altitude": null, "groups": [], "obcn": "647-643-9612", "nearby_distance": 1609.34}, "geometry": {"type": "Point", "coordinates": [-79.387095, 43.664088]}}, {"type": "Feature", "properties": {"station_id": "7031", "name": "Jarvis St / Isabella St", "address": "Jarvis St / Isabella St", "capacity": 23, "rental_methods": ["KEY", "TRANSITCARD", "CREDITCARD", "PHONE"], "physical_configuration": "REGULAR", "altitude": 0.0, "groups": [], "obcn": "416-569-7503", "nearby_distance": 500.0}, "geometry": {"type": "Point", "coordinates": [-79.379385, 43.668991]}}, {"type": "Feature", "properties": {"station_id": "7032", "name": "Augusta Ave / Dundas St W", "address": "Augusta Ave / Dundas St W", "capacity": 15, "rental_methods": ["KEY", "TRANSITCARD", "CREDITCARD", "PHONE"], "physical_configuration": "REGULAR", "altitude": 0.0, "groups": [], "obcn": "647-622-8139", "nearby_distance": 500.0}, "geometry": {"type": "Point", "coordinates": [-79.401456, 43.652473]}}, {"type": "Feature", "properties": {"station_id": "7033", "name": "Union Station", "address": "Union Station", "capacity": 43, "rental_methods": ["KEY", "TRANSITCARD", "CREDITCARD", "PHONE"], "physical_configuration": "REGULAR", "altitude": 0.0, "groups": [], "obcn": "647-620-1494", "nearby_distance": 500.0}, "geometry": {"type": "Point", "coordinates": [-79.380386, 43.645609]}}, {"type": "Feature", "properties": {"station_id": "7034", "name": "Church St / Bloor St E", "address": "Church St / Bloor St E", "capacity": 15, "rental_methods": ["KEY", "TRANSITCARD", "CREDITCARD", "PHONE"], "physical_configuration": "REGULAR", "altitude": 0.0, "groups": [], "obcn": "437-992-7029", "nearby_distance": 500.0}, "geometry": {"type": "Point", "coordinates": [-79.382919, 43.671389]}}, {"type": "Feature", "properties": {"station_id": "7035", "name": "Queen St W / Ossington Ave", "address": "Queen St W / Ossington Ave", "capacity": 23, "rental_methods": ["KEY", "TRANSITCARD", "CREDITCARD", "PHONE"], "physical_configuration": "REGULAR", "altitude": 0.0, "groups": ["P7197-7035"], "obcn": "416-371-6632", "nearby_distance": 500.0}, "geometry": {"type": "Point", "coordinates": [-79.419576, 43.643975]}}, {"type": "Feature", "properties": {"station_id": "7036", "name": "Trinity St /Front St E", "address": "Trinity St / Front St E", "capacity": 19, "rental_methods": ["KEY", "TRANSITCARD", "CREDITCARD", "PHONE"], "physical_configuration": "REGULAR", "altitude": 0.0, "groups": [], "obcn": "416-816-5603", "nearby_distance": 500.0}, "geometry": {"type": "Point", "coordinates": [-79.36023, 43.651318]}}, {"type": "Feature", "properties": {"station_id": "7037", "name": "Bathurst St / Dundas St W", "address": "Bathurst St / Dundas St W", "capacity": 27, "rental_methods": ["KEY", "TRANSITCARD", "CREDITCARD", "PHONE"], "physical_configuration": "REGULAR", "altitude": 0.0, "groups": [], "obcn": "647-621-8042", "nearby_distance": 500.0}, "geometry": {"type": "Point", "coordinates": [-79.4060978, 43.6519501]}}, {"type": "Feature", "properties": {"station_id": "7038", "name": "Dundas St W / Yonge St", "address": "Dundas St W / Yonge St", "capacity": 15, "rental_methods": ["KEY", "TRANSITCARD", "CREDITCARD", "PHONE"], "physical_configuration": "REGULAR", "altitude": 0.0, "groups": [], "obcn": "647-643-9714", "nearby_distance": 500.0}, "geometry": {"type": "Point", "coordinates": [-79.381484, 43.656094]}}, {"type": "Feature", "properties": {"station_id": "7039", "name": "Simcoe St / Michael Sweet Ave", "address": "Simcoe St / Michael Sweet Ave", "capacity": 19, "rental_methods": ["KEY", "TRANSITCARD", "CREDITCARD", "PHONE"], "physical_configuration": "REGULAR", "altitude": 0.0, "groups": [], "obcn": "647-202-6089", "nearby_distance": 500.0}, "geometry": {"type": "Point", "coordinates": [-79.3882538196087, 43.652327224103]}}, {"type": "Feature", "properties": {"station_id": "7040", "name": "Euclid Ave / Bloor St W", "address": "Euclid Ave / Bloor St W", "capacity": 19, "rental_methods": ["KEY", "TRANSITCARD", "CREDITCARD", "PHONE"], "physical_configuration": "REGULAR", "altitude": 0.0, "groups": [], "obcn": "416-565-9380", "nearby_distance": 500.0}, "geometry": {"type": "Point", "coordinates": [-79.414783, 43.664467]}}, {"type": "Feature", "properties": {"station_id": "7041", "name": "Edward St / Yonge St", "address": "Edward St / Yonge St", "capacity": 22, "rental_methods": ["KEY", "TRANSITCARD", "CREDITCARD", "PHONE"], "physical_configuration": "REGULAR", "altitude": null, "groups": [], "obcn": "647-643-9697", "nearby_distance": 500.0}, "geometry": {"type": "Point", "coordinates": [-79.382736, 43.656729]}}, {"type": "Feature", "properties": {"station_id": "7042", "name": "Sherbourne St / Wellesley St E", "address": "Sherbourne St / Wellesley St E", "capacity": 31, "rental_methods": ["KEY", "TRANSITCARD", "CREDITCARD", "PHONE"], "physical_configuration": "REGULAR", "altitude": 0.0, "groups": [], "obcn": "416-804-0543", "nearby_distance": 500.0}, "geometry": {"type": "Point", "coordinates": [-79.374, 43.6673]}}, {"type": "Feature", "properties": {"station_id": "7043", "name": "Queens Quay W / Lower Simcoe St", "address": "Queens Quay W / Lower Simcoe St", "capacity": 19, "rental_methods": ["KEY", "TRANSITCARD", "CREDITCARD", "PHONE"], "physical_configuration": "REGULAR", "altitude": 0.0, "groups": [], "obcn": "647-204-1380", "nearby_distance": 500.0}, "geometry": {"type": "Point", "coordinates": [-79.383717, 43.63951]}}, {"type": "Feature", "properties": {"station_id": "7044", "name": "Church St / Alexander St", "address": "Church St / Alexander St", "capacity": 15, "rental_methods": ["KEY", "TRANSITCARD", "CREDITCARD", "PHONE"], "physical_configuration": "REGULAR", "altitude": 0.0, "groups": [], "obcn": "647-618-1341", "nearby_distance": 500.0}, "geometry": {"type": "Point", "coordinates": [-79.380288, 43.663722]}}, {"type": "Feature", "properties": {"station_id": "7045", "name": "Bond St / Queen St E", "address": "Bond St / Queen St E", "capacity": 25, "rental_methods": ["KEY", "TRANSITCARD", "CREDITCARD", "PHONE"], "physical_configuration": "REGULAR", "altitude": 0.0, "groups": [], "obcn": "647-629-0639", "nearby_distance": 500.0}, "geometry": {"type": "Point", "coordinates": [-79.376716, 43.653236]}}, {"type": "Feature", "properties": {"station_id": "7046", "name": "Niagara St / Richmond St W", "address": "Niagara St / Richmond St W", "capacity": 26, "rental_methods": ["KEY", "TRANSITCARD", "CREDITCARD", "PHONE"], "physical_configuration": "REGULAR", "altitude": 0.0, "groups": ["P7245-7046"], "obcn": "647-643-9655", "nearby_distance": 500.0}, "geometry": {"type": "Point", "coordinates": [-79.409597, 43.64534]}}, {"type": "Feature", "properties": {"station_id": "7047", "name": "University Ave / Gerrard St W (East Side)", "address": "University Ave / Gerrard St W", "capacity": 25, "rental_methods": ["KEY", "TRANSITCARD", "CREDITCARD", "PHONE"], "physical_configuration": "REGULAR", "altitude": 0.0, "groups": ["P7004-7047"], "obcn": "647-643-9690", "nearby_distance": 500.0}, "geometry": {"type": "Point", "coordinates": [-79.389165, 43.657763]}}, {"type": "Feature", "properties": {"station_id": "7048", "name": "Front St W / Yonge St (Hockey Hall of Fame)", "address": "Front St W / Yonge St (Hockey Hall of Fame)", "capacity": 47, "rental_methods": ["KEY", "TRANSITCARD", "CREDITCARD", "PHONE"], "physical_configuration": "REGULAR", "altitude": 0.0, "groups": [], "obcn": "647-204-0984", "nearby_distance": 500.0}, "geometry": {"type": "Point", "coordinates": [-79.377962, 43.646144]}}, {"type": "Feature", "properties": {"station_id": "7050", "name": "Richmond St E / Jarvis St Green P", "address": "Richmond St E / Jarvis St Green P", "capacity": 16, "rental_methods": ["KEY", "TRANSITCARD", "CREDITCARD", "PHONE"], "physical_configuration": "ELECTRICBIKESTATION", "altitude": 0.0, "groups": ["P7458-7050"], "obcn": "416-602-5376", "nearby_distance": 500.0}, "geometry": {"type": "Point", "coordinates": [-79.374222, 43.652634]}}, {"type": "Feature", "properties": {"station_id": "7052", "name": "Wellington St W / Bay St", "address": "Wellington St W / Bay St", "capacity": 27, "rental_methods": ["KEY", "TRANSITCARD", "CREDITCARD", "PHONE"], "physical_configuration": "REGULAR", "altitude": 0.0, "groups": [], "obcn": "416-723-3438", "nearby_distance": 500.0}, "geometry": {"type": "Point", "coordinates": [-79.379878, 43.647259]}}, {"type": "Feature", "properties": {"station_id": "7053", "name": "Metro Hall Plaza", "address": "Metro Hall Plaza", "capacity": 27, "rental_methods": ["KEY", "TRANSITCARD", "CREDITCARD", "PHONE"], "physical_configuration": "REGULAR", "altitude": null, "groups": ["P7253-7053"], "obcn": "647-201-7794", "nearby_distance": 500.0}, "geometry": {"type": "Point", "coordinates": [-79.38783, 43.645859]}}, {"type": "Feature", "properties": {"station_id": "7054", "name": "Navy Wharf Ct. / Bremner Blvd.", "address": "Navy Wharf Ct. / Bremner Blvd.", "capacity": 11, "rental_methods": ["KEY", "TRANSITCARD", "CREDITCARD", "PHONE"], "physical_configuration": "REGULAR", "altitude": 0.0, "groups": ["P7054-7073"], "obcn": "416-662-2516", "nearby_distance": 500.0}, "geometry": {"type": "Point", "coordinates": [-79.391051, 43.640722]}}, {"type": "Feature", "properties": {"station_id": "7055", "name": "Jarvis St / Carlton St", "address": "Jarvis St / Carlton St", "capacity": 15, "rental_methods": ["KEY", "TRANSITCARD", "CREDITCARD", "PHONE"], "physical_configuration": "REGULAR", "altitude": 0.0, "groups": [], "obcn": "416-722-3901", "nearby_distance": 500.0}, "geometry": {"type": "Point", "coordinates": [-79.37617, 43.66207]}}, {"type": "Feature", "properties": {"station_id": "7056", "name": "Parliament St / Gerrard St", "address": "Parliament St / Gerrard St", "capacity": 23, "rental_methods": ["KEY", "TRANSITCARD", "CREDITCARD", "PHONE"], "physical_configuration": "REGULAR", "altitude": 0.0, "groups": [], "obcn": "647-201-5089", "nearby_distance": 500.0}, "geometry": {"type": "Point", "coordinates": [-79.3656796, 43.662132]}}, {"type": "Feature", "properties": {"station_id": "7057", "name": "Simcoe St / Wellington St South", "address": "Simcoe St / Wellington St 1", "capacity": 27, "rental_methods": ["KEY", "TRANSITCARD", "CREDITCARD", "PHONE"], "physical_configuration": "REGULAR", "altitude": 0.0, "groups": [], "obcn": "647-641-2103", "nearby_distance": 500.0}, "geometry": {"type": "Point", "coordinates": [-79.3853654, 43.6458569]}}, {"type": "Feature", "properties": {"station_id": "7058", "name": "Huron St / Harbord St", "address": "Huron/ Harbord St", "capacity": 19, "rental_methods": ["KEY", "TRANSITCARD", "CREDITCARD", "PHONE"], "physical_configuration": "REGULAR", "altitude": 0.0, "groups": [], "obcn": "647-643-9725", "nearby_distance": 500.0}, "geometry": {"type": "Point", "coordinates": [-79.400053, 43.6637]}}, {"type": "Feature", "properties": {"station_id": "7059", "name": "Front St W / Blue Jays Way", "address": "Front St W / Blue Jays Way", "capacity": 15, "rental_methods": ["KEY", "TRANSITCARD", "CREDITCARD", "PHONE"], "physical_configuration": "REGULAR", "altitude": 0.0, "groups": [], "obcn": "647-241-7299", "nearby_distance": 500.0}, "geometry": {"type": "Point", "coordinates": [-79.390477, 43.643473]}}, {"type": "Feature", "properties": {"station_id": "7061", "name": "Dalton Rd / Bloor St W", "address": "Dalton Rd / Bloor St W", "capacity": 15, "rental_methods": ["KEY", "TRANSITCARD", "CREDITCARD", "PHONE"], "physical_configuration": "REGULAR", "altitude": 0.0, "groups": ["P7254-7061"], "obcn": "647-643-9676", "nearby_distance": 500.0}, "geometry": {"type": "Point", "coordinates": [-79.4066433, 43.6662942]}}, {"type": "Feature", "properties": {"station_id": "7062", "name": "University Ave / College St (West)", "address": "University Ave / College St (West)", "capacity": 11, "rental_methods": ["KEY", "TRANSITCARD", "CREDITCARD", "PHONE"], "physical_configuration": "REGULAR", "altitude": null, "groups": ["P7062-7502"], "obcn": "647-643-9667", "nearby_distance": 500.0}, "geometry": {"type": "Point", "coordinates": [-79.390213, 43.659226]}}, {"type": "Feature", "properties": {"station_id": "7063", "name": "Queen's Park / Bloor St W", "address": "Queen's Park / Bloor St W", "capacity": 19, "rental_methods": ["KEY", "TRANSITCARD", "CREDITCARD", "PHONE"], "physical_configuration": "REGULAR", "altitude": 0.0, "groups": [], "obcn": "647-632-5491", "nearby_distance": 500.0}, "geometry": {"type": "Point", "coordinates": [-79.393899, 43.668456]}}, {"type": "Feature", "properties": {"station_id": "7064", "name": "51 Parliament St", "address": "51 Parliament St", "capacity": 19, "rental_methods": ["KEY", "TRANSITCARD", "CREDITCARD", "PHONE"], "physical_configuration": "REGULAR", "altitude": 0.0, "groups": [], "obcn": "647-241-9519", "nearby_distance": 500.0}, "geometry": {"type": "Point", "coordinates": [-79.362198, 43.65205]}}, {"type": "Feature", "properties": {"station_id": "7065", "name": "Dundas St E / Parliament St", "address": "Dundas St E / Parliament St", "capacity": 15, "rental_methods": ["KEY", "TRANSITCARD", "CREDITCARD", "PHONE"], "physical_configuration": "REGULAR", "altitude": 0.0, "groups": [], "obcn": "416-568-2679", "nearby_distance": 500.0}, "geometry": {"type": "Point", "coordinates": [-79.365769, 43.659575]}}, {"type": "Feature", "properties": {"station_id": "7066", "name": "Willcocks St / St. George St", "address": "Willcocks St / St. George St", "capacity": 17, "rental_methods": ["KEY", "TRANSITCARD", "CREDITCARD", "PHONE"], "physical_configuration": "REGULAR", "altitude": 0.0, "groups": [], "obcn": "647-643-9624", "nearby_distance": 500.0}, "geometry": {"type": "Point", "coordinates": [-79.397735, 43.662085]}}, {"type": "Feature", "properties": {"station_id": "7067", "name": "Yonge St / Harbour St", "address": "Yonge St / Harbour St", "capacity": 38, "rental_methods": ["KEY", "TRANSITCARD", "CREDITCARD", "PHONE"], "physical_configuration": "REGULAR", "altitude": 0.0, "groups": [], "obcn": "647-643-9613", "nearby_distance": 500.0}, "geometry": {"type": "Point", "coordinates": [-79.375413, 43.643795]}}, {"type": "Feature", "properties": {"station_id": "7068", "name": "Blantyre Park", "address": "163 Fallingbrook Rd", "capacity": 22, "rental_methods": ["KEY", "TRANSITCARD", "CREDITCARD", "PHONE"], "physical_configuration": "REGULAR", "altitude": 0.0, "groups": [], "obcn": "437-999-9028", "nearby_distance": 1609.34}, "geometry": {"type": "Point", "coordinates": [-79.279682, 43.68306889999999]}}, {"type": "Feature", "properties": {"station_id": "7069", "name": "Queen St W / Spadina Ave", "address": "Queen St W / Spadina Ave", "capacity": 11, "rental_methods": ["KEY", "TRANSITCARD", "CREDITCARD", "PHONE"], "physical_configuration": "REGULAR", "altitude": 0.0, "groups": ["P7256-7069"], "obcn": "647-622-8344", "nearby_distance": 500.0}, "geometry": {"type": "Point", "coordinates": [-79.395504, 43.649147]}}, {"type": "Feature", "properties": {"station_id": "7070", "name": "25 York St \u2013 Union Station South", "address": "25 York St \u2013 Union Station South", "capacity": 11, "rental_methods": ["KEY", "TRANSITCARD", "CREDITCARD", "PHONE"], "physical_configuration": "REGULAR", "altitude": 0.0, "groups": ["P7070-7470"], "obcn": "416-624-8596", "nearby_distance": 500.0}, "geometry": {"type": "Point", "coordinates": [-79.380414, 43.643667]}}, {"type": "Feature", "properties": {"station_id": "7071", "name": "161 Bleecker St (South of Wellesley)", "address": "161 Bleecker St (South of Wellesley)", "capacity": 23, "rental_methods": ["KEY", "TRANSITCARD", "CREDITCARD", "PHONE"], "physical_configuration": "REGULAR", "altitude": 0.0, "groups": [], "obcn": "647-643-9846", "nearby_distance": 500.0}, "geometry": {"type": "Point", "coordinates": [-79.373327, 43.666233]}}, {"type": "Feature", "properties": {"station_id": "7072", "name": "Fleet St / Bathurst St", "address": "Fleet St / Bathurst St", "capacity": 19, "rental_methods": ["KEY", "TRANSITCARD", "CREDITCARD", "PHONE"], "physical_configuration": "REGULAR", "altitude": 0.0, "groups": [], "obcn": "416-564-6690", "nearby_distance": 500.0}, "geometry": {"type": "Point", "coordinates": [-79.400042, 43.636611]}}, {"type": "Feature", "properties": {"station_id": "7073", "name": "Spadina Ave / Fort York Blvd", "address": "Spadina Ave / Fort York Blvd", "capacity": 23, "rental_methods": ["KEY", "TRANSITCARD", "CREDITCARD", "PHONE"], "physical_configuration": "REGULAR", "altitude": 0.0, "groups": ["P7054-7073"], "obcn": "416-627-9646", "nearby_distance": 500.0}, "geometry": {"type": "Point", "coordinates": [-79.393249, 43.640114]}}, {"type": "Feature", "properties": {"station_id": "7074", "name": "King St E / Church St", "address": "St James Park", "capacity": 15, "rental_methods": ["KEY", "TRANSITCARD", "CREDITCARD", "PHONE"], "physical_configuration": "REGULAR", "altitude": 0.0, "groups": [], "obcn": "647-643-9718", "nearby_distance": 500.0}, "geometry": {"type": "Point", "coordinates": [-79.3733541, 43.65003919999999]}}, {"type": "Feature", "properties": {"station_id": "7075", "name": "Queens Quay W / Dan Leckie Way", "address": "Queens Quay W / Dan Leckie Way", "capacity": 27, "rental_methods": ["KEY", "TRANSITCARD", "CREDITCARD", "PHONE"], "physical_configuration": "REGULAR", "altitude": 0.0, "groups": [], "obcn": "416-669-9604", "nearby_distance": 500.0}, "geometry": {"type": "Point", "coordinates": [-79.395854, 43.636533]}}, {"type": "Feature", "properties": {"station_id": "7076", "name": "York St / Queens Quay W", "address": "York St / Queens Quay W", "capacity": 56, "rental_methods": ["KEY", "TRANSITCARD", "CREDITCARD", "PHONE"], "physical_configuration": "REGULAR", "altitude": 0.0, "groups": [], "obcn": "416-618-7456", "nearby_distance": 500.0}, "geometry": {"type": "Point", "coordinates": [-79.380464, 43.640132]}}, {"type": "Feature", "properties": {"station_id": "7077", "name": "College Park South", "address": "College Park South", "capacity": 19, "rental_methods": ["KEY", "TRANSITCARD", "CREDITCARD", "PHONE"], "physical_configuration": "REGULAR", "altitude": 0.0, "groups": [], "obcn": "647-643-9694", "nearby_distance": 500.0}, "geometry": {"type": "Point", "coordinates": [-79.382767, 43.659777]}}, {"type": "Feature", "properties": {"station_id": "7078", "name": "College St / Major St", "address": "College St / Major St", "capacity": 11, "rental_methods": ["KEY", "TRANSITCARD", "CREDITCARD", "PHONE"], "physical_configuration": "REGULAR", "altitude": 0.0, "groups": ["P7023-7078"], "obcn": "647-643-9638", "nearby_distance": 500.0}, "geometry": {"type": "Point", "coordinates": [-79.4032, 43.6576]}}, {"type": "Feature", "properties": {"station_id": "7079", "name": "McGill St / Church St", "address": "McGill St / Church St", "capacity": 17, "rental_methods": ["KEY", "TRANSITCARD", "CREDITCARD", "PHONE"], "physical_configuration": "REGULAR", "altitude": 0.0, "groups": ["P7292-7079"], "obcn": "437-999-8524", "nearby_distance": 500.0}, "geometry": {"type": "Point", "coordinates": [-79.379052, 43.660694]}}, {"type": "Feature", "properties": {"station_id": "7083", "name": "Danforth Ave / Barrington Ave", "address": "Danforth Ave / Barrington Ave", "capacity": 15, "rental_methods": ["KEY", "TRANSITCARD", "CREDITCARD", "PHONE"], "physical_configuration": "REGULAR", "altitude": 0.0, "groups": [], "obcn": "647-631-4821", "nearby_distance": 500.0}, "geometry": {"type": "Point", "coordinates": [-79.300463, 43.688325]}}, {"type": "Feature", "properties": {"station_id": "7084", "name": "High Park - Grenadier Cafe", "address": "High Park - Grenadier Cafe", "capacity": 11, "rental_methods": ["KEY", "TRANSITCARD", "CREDITCARD", "PHONE"], "physical_configuration": "REGULAR", "altitude": 0.0, "groups": ["P7084-7461"], "obcn": "647-643-9563", "nearby_distance": 1609.34}, "geometry": {"type": "Point", "coordinates": [-79.4657123, 43.645599]}}, {"type": "Feature", "properties": {"station_id": "7085", "name": "Danforth Ave / Westlake Ave", "address": "Danforth Ave / Westlake Ave", "capacity": 15, "rental_methods": ["KEY", "TRANSITCARD", "CREDITCARD", "PHONE"], "physical_configuration": "REGULAR", "altitude": 0.0, "groups": [], "obcn": "647-201-8853", "nearby_distance": 500.0}, "geometry": {"type": "Point", "coordinates": [-79.304848, 43.687323]}}, {"type": "Feature", "properties": {"station_id": "7086", "name": "High Park - West Rd", "address": "High Park - West Rd", "capacity": 23, "rental_methods": ["KEY", "TRANSITCARD", "CREDITCARD", "PHONE"], "physical_configuration": "REGULAR", "altitude": 0.0, "groups": [], "obcn": "647-641-7093", "nearby_distance": 1609.34}, "geometry": {"type": "Point", "coordinates": [-79.4654233, 43.6525077]}}, {"type": "Feature", "properties": {"station_id": "7087", "name": "Danforth Ave / Aldridge Ave", "address": "Danforth Ave / Aldridge Ave", "capacity": 11, "rental_methods": ["KEY", "TRANSITCARD", "CREDITCARD", "PHONE"], "physical_configuration": "REGULAR", "altitude": 0.0, "groups": ["P7087-7429"], "obcn": "647-641-9873", "nearby_distance": 1000.0}, "geometry": {"type": "Point", "coordinates": [-79.316767, 43.684758]}}, {"type": "Feature", "properties": {"station_id": "7088", "name": "Danforth Ave / Coxwell Ave", "address": "Danforth Ave / Coxwell Ave", "capacity": 15, "rental_methods": ["KEY", "TRANSITCARD", "CREDITCARD", "PHONE"], "physical_configuration": "REGULAR", "altitude": 0.0, "groups": [], "obcn": "647-248-5891", "nearby_distance": 500.0}, "geometry": {"type": "Point", "coordinates": [-79.322961, 43.683378]}}, {"type": "Feature", "properties": {"station_id": "7089", "name": "Church St  / Wood St", "address": "Church St / Wood St", "capacity": 19, "rental_methods": ["KEY", "TRANSITCARD", "CREDITCARD", "PHONE"], "physical_configuration": "REGULAR", "altitude": 102.08, "groups": [], "obcn": "647-262-1148", "nearby_distance": 500.0}, "geometry": {"type": "Point", "coordinates": [-79.379903, 43.662712]}}, {"type": "Feature", "properties": {"station_id": "7090", "name": "Danforth Ave / Lamb Ave", "address": "Danforth Ave / Lamb Ave", "capacity": 19, "rental_methods": ["KEY", "TRANSITCARD", "CREDITCARD", "PHONE"], "physical_configuration": "REGULAR", "altitude": 0.0, "groups": [], "obcn": "647-641-6203", "nearby_distance": 500.0}, "geometry": {"type": "Point", "coordinates": [-79.329455, 43.681991]}}, {"type": "Feature", "properties": {"station_id": "7091", "name": "Donlands Station", "address": "Donlands Station", "capacity": 15, "rental_methods": ["KEY", "TRANSITCARD", "CREDITCARD", "PHONE"], "physical_configuration": "REGULAR", "altitude": 0.0, "groups": ["P7091-7092"], "obcn": "647-669-1705", "nearby_distance": 1000.0}, "geometry": {"type": "Point", "coordinates": [-79.3373885, 43.681114]}}, {"type": "Feature", "properties": {"station_id": "7092", "name": "Pape Subway Green P", "address": "Pape Subway Green P", "capacity": 15, "rental_methods": ["KEY", "TRANSITCARD", "CREDITCARD", "PHONE"], "physical_configuration": "REGULAR", "altitude": 0.0, "groups": ["P7091-7092"], "obcn": "647-641-3078", "nearby_distance": 500.0}, "geometry": {"type": "Point", "coordinates": [-79.344062, 43.680223]}}, {"type": "Feature", "properties": {"station_id": "7093", "name": "Danforth Ave / Gough Ave", "address": "Danforth Ave / Gough Ave", "capacity": 17, "rental_methods": ["KEY", "TRANSITCARD", "CREDITCARD", "PHONE"], "physical_configuration": "REGULAR", "altitude": 0.0, "groups": [], "obcn": "647-669-1671", "nearby_distance": 500.0}, "geometry": {"type": "Point", "coordinates": [-79.346289, 43.678401]}}, {"type": "Feature", "properties": {"station_id": "7094", "name": "Chester Station", "address": "23 Chester Ave.", "capacity": 9, "rental_methods": ["KEY", "TRANSITCARD", "CREDITCARD", "PHONE"], "physical_configuration": "REGULAR", "altitude": 0.0, "groups": ["P7094-7450"], "obcn": "647-638-8374", "nearby_distance": 500.0}, "geometry": {"type": "Point", "coordinates": [-79.3513564, 43.6784834]}}, {"type": "Feature", "properties": {"station_id": "7095", "name": "Danforth Ave / Ellerbeck St", "address": "Danforth Ave / Ellerbeck St", "capacity": 14, "rental_methods": ["KEY", "TRANSITCARD", "CREDITCARD", "PHONE"], "physical_configuration": "REGULAR", "altitude": 0.0, "groups": [], "obcn": "647-669-1678", "nearby_distance": 500.0}, "geometry": {"type": "Point", "coordinates": [-79.35667, 43.677076]}}, {"type": "Feature", "properties": {"station_id": "7096", "name": "Lower Don River Trail and Taylor Creek Trail", "address": "425 Don Mills Rd", "capacity": 19, "rental_methods": ["KEY", "TRANSITCARD", "CREDITCARD", "PHONE"], "physical_configuration": "REGULAR", "altitude": 0.0, "groups": ["P7287-7096"], "obcn": "647-669-3908", "nearby_distance": 500.0}, "geometry": {"type": "Point", "coordinates": [-79.33368089999999, 43.7027268]}}, {"type": "Feature", "properties": {"station_id": "7097", "name": "Riverdale Park North (Broadview Ave)", "address": "Riverdale Park North (Broadview Ave)", "capacity": 15, "rental_methods": ["KEY", "TRANSITCARD", "CREDITCARD", "PHONE"], "physical_configuration": "REGULAR", "altitude": 0.0, "groups": [], "obcn": "647-643-9838", "nearby_distance": 500.0}, "geometry": {"type": "Point", "coordinates": [-79.354704, 43.671172]}}, {"type": "Feature", "properties": {"station_id": "7098", "name": "Riverdale Park South (Broadview Ave)", "address": "Riverdale Park South (Broadview Ave)", "capacity": 15, "rental_methods": ["KEY", "TRANSITCARD", "CREDITCARD", "PHONE"], "physical_configuration": "REGULAR", "altitude": 0.0, "groups": [], "obcn": "647-640-5291", "nearby_distance": 500.0}, "geometry": {"type": "Point", "coordinates": [-79.35347, 43.667819]}}, {"type": "Feature", "properties": {"station_id": "7099", "name": "Cherry St / Mill St", "address": "Cherry St / Mill St", "capacity": 15, "rental_methods": ["KEY", "TRANSITCARD", "CREDITCARD", "PHONE"], "physical_configuration": "REGULAR", "altitude": 0.0, "groups": [], "obcn": "647-640-7714", "nearby_distance": 500.0}, "geometry": {"type": "Point", "coordinates": [-79.35794659999999, 43.6513927]}}, {"type": "Feature", "properties": {"station_id": "7100", "name": "Dundas St E / Regent Park Blvd", "address": "Dundas St E / Regent Park Blvd", "capacity": 27, "rental_methods": ["KEY", "TRANSITCARD", "CREDITCARD", "PHONE"], "physical_configuration": "REGULAR", "altitude": 0.0, "groups": [], "obcn": "647-669-3847", "nearby_distance": 500.0}, "geometry": {"type": "Point", "coordinates": [-79.361275, 43.660207]}}, {"type": "Feature", "properties": {"station_id": "7101", "name": "Lower Sherbourne St / The Esplanade", "address": "Lower Sherbourne St / The Esplanade", "capacity": 27, "rental_methods": ["KEY", "TRANSITCARD", "CREDITCARD", "PHONE"], "physical_configuration": "REGULAR", "altitude": 0.0, "groups": [], "obcn": "647-641-5818", "nearby_distance": 500.0}, "geometry": {"type": "Point", "coordinates": [-79.367061, 43.648655]}}, {"type": "Feature", "properties": {"station_id": "7102", "name": "Nelson St / Duncan St", "address": "Nelson St / Duncan St", "capacity": 31, "rental_methods": ["KEY", "TRANSITCARD", "CREDITCARD", "PHONE"], "physical_configuration": "REGULAR", "altitude": 0.0, "groups": ["P7017-7102"], "obcn": "647-641-5951", "nearby_distance": 500.0}, "geometry": {"type": "Point", "coordinates": [-79.389728, 43.648711]}}, {"type": "Feature", "properties": {"station_id": "7103", "name": "Jimmie Simpson Park (Queen St E)", "address": "Jimmie Simpson Park (Queen St E)", "capacity": 15, "rental_methods": ["KEY", "TRANSITCARD", "CREDITCARD", "PHONE"], "physical_configuration": "REGULAR", "altitude": 0.0, "groups": [], "obcn": "647-669-2521", "nearby_distance": 500.0}, "geometry": {"type": "Point", "coordinates": [-79.3437663, 43.6605603]}}, {"type": "Feature", "properties": {"station_id": "7104", "name": "King St E / River St", "address": "King St E / River St", "capacity": 15, "rental_methods": ["KEY", "TRANSITCARD", "CREDITCARD", "PHONE"], "physical_configuration": "REGULAR", "altitude": 0.0, "groups": [], "obcn": "647-641-5813", "nearby_distance": 500.0}, "geometry": {"type": "Point", "coordinates": [-79.35627385059036, 43.656784782853144]}}, {"type": "Feature", "properties": {"station_id": "7105", "name": "Queen St E / Sackville St", "address": "Queen St E / Sackville St", "capacity": 15, "rental_methods": ["KEY", "TRANSITCARD", "CREDITCARD", "PHONE"], "physical_configuration": "REGULAR", "altitude": 0.0, "groups": [], "obcn": "647-290-7069", "nearby_distance": 500.0}, "geometry": {"type": "Point", "coordinates": [-79.36138888888888, 43.6561111]}}, {"type": "Feature", "properties": {"station_id": "7106", "name": "Mill St / Tannery Rd", "address": "Mill St / Tannery Rd", "capacity": 39, "rental_methods": ["KEY", "TRANSITCARD", "CREDITCARD", "PHONE"], "physical_configuration": "REGULAR", "altitude": 0.0, "groups": [], "obcn": "647-641-5839", "nearby_distance": 500.0}, "geometry": {"type": "Point", "coordinates": [-79.354455, 43.652219]}}, {"type": "Feature", "properties": {"station_id": "7107", "name": "Cherry St / Distillery Ln", "address": "Cherry St / Distillery Ln", "capacity": 15, "rental_methods": ["KEY", "TRANSITCARD", "CREDITCARD", "PHONE"], "physical_configuration": "REGULAR", "altitude": 0.0, "groups": [], "obcn": "647-669-2608", "nearby_distance": 500.0}, "geometry": {"type": "Point", "coordinates": [-79.356832, 43.650279]}}, {"type": "Feature", "properties": {"station_id": "7108", "name": "Front St E / Cherry St", "address": "Front St E / Cherry St", "capacity": 15, "rental_methods": ["KEY", "TRANSITCARD", "CREDITCARD", "PHONE"], "physical_configuration": "REGULAR", "altitude": 0.0, "groups": ["P7493-7108"], "obcn": "647-669-4512", "nearby_distance": 500.0}, "geometry": {"type": "Point", "coordinates": [-79.358395, 43.652686]}}, {"type": "Feature", "properties": {"station_id": "7109", "name": "Seaton St / Dundas St E - SMART", "address": "Seaton St / Dundas St E", "capacity": 32, "rental_methods": ["KEY", "TRANSITCARD", "PHONE"], "physical_configuration": "SMARTMAPFRAME", "altitude": 0.0, "groups": [], "obcn": "647-669-3971", "nearby_distance": 500.0}, "geometry": {"type": "Point", "coordinates": [-79.369596, 43.658777]}}, {"type": "Feature", "properties": {"station_id": "7110", "name": "Queen St E / Berkeley St", "address": "Queen St E / Berkeley St", "capacity": 15, "rental_methods": ["KEY", "TRANSITCARD", "CREDITCARD", "PHONE"], "physical_configuration": "REGULAR", "altitude": 0.0, "groups": [], "obcn": "647-290-4392", "nearby_distance": 500.0}, "geometry": {"type": "Point", "coordinates": [-79.36583333333333, 43.6552778]}}, {"type": "Feature", "properties": {"station_id": "7111", "name": "King St W / Douro St", "address": "King St W / Douro St", "capacity": 11, "rental_methods": ["KEY", "TRANSITCARD", "CREDITCARD", "PHONE"], "physical_configuration": "REGULAR", "altitude": 0.0, "groups": ["P7111-7412"], "obcn": "647-641-5214", "nearby_distance": 500.0}, "geometry": {"type": "Point", "coordinates": [-79.416379, 43.640885]}}, {"type": "Feature", "properties": {"station_id": "7112", "name": "Liberty St / Fraser Ave Green P", "address": "Liberty St / Fraser Ave Green P", "capacity": 19, "rental_methods": ["KEY", "TRANSITCARD", "CREDITCARD", "PHONE"], "physical_configuration": "REGULAR", "altitude": 0.0, "groups": [], "obcn": "647-669-3920", "nearby_distance": 500.0}, "geometry": {"type": "Point", "coordinates": [-79.424146, 43.637981]}}, {"type": "Feature", "properties": {"station_id": "7114", "name": "Carlton St / Parliament St", "address": "Carlton St / Parliament St", "capacity": 15, "rental_methods": ["KEY", "TRANSITCARD", "CREDITCARD", "PHONE"], "physical_configuration": "REGULAR", "altitude": 0.0, "groups": [], "obcn": "647-262-2870", "nearby_distance": 500.0}, "geometry": {"type": "Point", "coordinates": [-79.36793, 43.664524]}}, {"type": "Feature", "properties": {"station_id": "7115", "name": "Howard St / Sherbourne St", "address": "Howard St / Sherbourne St", "capacity": 15, "rental_methods": ["KEY", "TRANSITCARD", "CREDITCARD", "PHONE"], "physical_configuration": "REGULAR", "altitude": 0.0, "groups": [], "obcn": "647-641-1259", "nearby_distance": 500.0}, "geometry": {"type": "Point", "coordinates": [-79.376367, 43.6712581]}}, {"type": "Feature", "properties": {"station_id": "7117", "name": "640 Bloor Street E", "address": "640 Bloor Street East", "capacity": 19, "rental_methods": ["KEY", "TRANSITCARD", "CREDITCARD", "PHONE"], "physical_configuration": "REGULAR", "altitude": 0.0, "groups": [], "obcn": "647-267-2042", "nearby_distance": 500.0}, "geometry": {"type": "Point", "coordinates": [-79.36701962396272, 43.67468857448634]}}, {"type": "Feature", "properties": {"station_id": "7118", "name": "King St W / Bay St (East Side)", "address": "King St W / Bay St (East Side)", "capacity": 19, "rental_methods": ["KEY", "TRANSITCARD", "CREDITCARD", "PHONE"], "physical_configuration": "REGULAR", "altitude": 0.0, "groups": ["P7417-7118"], "obcn": "647-271-6326", "nearby_distance": 500.0}, "geometry": {"type": "Point", "coordinates": [-79.380042, 43.648575]}}, {"type": "Feature", "properties": {"station_id": "7119", "name": "Sumach St / Carlton St. (Riverdale Farm)", "address": "Sumach St / Carlton St (Riverdale Farm)", "capacity": 15, "rental_methods": ["KEY", "TRANSITCARD", "CREDITCARD", "PHONE"], "physical_configuration": "REGULAR", "altitude": 0.0, "groups": ["P7312-7119"], "obcn": "647-282-9705", "nearby_distance": 500.0}, "geometry": {"type": "Point", "coordinates": [-79.362506, 43.665867]}}, {"type": "Feature", "properties": {"station_id": "7120", "name": "Gerrard St E / River St", "address": "Gerrard St E / River St", "capacity": 11, "rental_methods": ["KEY", "TRANSITCARD", "CREDITCARD", "PHONE"], "physical_configuration": "REGULAR", "altitude": 0.0, "groups": ["P7120-7286"], "obcn": "647-643-9843", "nearby_distance": 500.0}, "geometry": {"type": "Point", "coordinates": [-79.358534, 43.663993]}}, {"type": "Feature", "properties": {"station_id": "7121", "name": "Jarvis St / Dundas St E", "address": "Jarvis St / Dundas St E", "capacity": 27, "rental_methods": ["KEY", "TRANSITCARD", "CREDITCARD", "PHONE"], "physical_configuration": "REGULAR", "altitude": 0.0, "groups": [], "obcn": "647-641-5582", "nearby_distance": 500.0}, "geometry": {"type": "Point", "coordinates": [-79.374756, 43.657266]}}, {"type": "Feature", "properties": {"station_id": "7122", "name": "Niagara St / Tecumseth St", "address": "Niagara St / Tecumseth St", "capacity": 15, "rental_methods": ["KEY", "TRANSITCARD", "CREDITCARD", "PHONE"], "physical_configuration": "REGULAR", "altitude": 0.0, "groups": [], "obcn": "647-272-3286", "nearby_distance": 500.0}, "geometry": {"type": "Point", "coordinates": [-79.404444, 43.641389]}}, {"type": "Feature", "properties": {"station_id": "7123", "name": "424 Wellington St W", "address": "424 Wellington St W", "capacity": 15, "rental_methods": ["KEY", "TRANSITCARD", "CREDITCARD", "PHONE"], "physical_configuration": "REGULAR", "altitude": 0.0, "groups": ["P7011-7123"], "obcn": "647-272-4047", "nearby_distance": 500.0}, "geometry": {"type": "Point", "coordinates": [-79.396649, 43.643834]}}, {"type": "Feature", "properties": {"station_id": "7124", "name": "Dundas St E / Broadview Ave", "address": "Dundas St E / Broadview Ave", "capacity": 18, "rental_methods": ["KEY", "TRANSITCARD", "CREDITCARD", "PHONE"], "physical_configuration": "REGULAR", "altitude": 0.0, "groups": [], "obcn": "647-669-4283", "nearby_distance": 500.0}, "geometry": {"type": "Point", "coordinates": [-79.351104, 43.662365]}}, {"type": "Feature", "properties": {"station_id": "7126", "name": "Yonge St / Yorkville Ave", "address": "Yonge St / Yorkville Ave", "capacity": 17, "rental_methods": ["KEY", "TRANSITCARD", "CREDITCARD", "PHONE"], "physical_configuration": "REGULAR", "altitude": 0.0, "groups": [], "obcn": "647-719-3941", "nearby_distance": 500.0}, "geometry": {"type": "Point", "coordinates": [-79.387778, 43.671944]}}, {"type": "Feature", "properties": {"station_id": "7127", "name": "Bay St / Scollard St", "address": "Bay St / Scollard St", "capacity": 15, "rental_methods": ["KEY", "TRANSITCARD", "CREDITCARD", "PHONE"], "physical_configuration": "REGULAR", "altitude": 0.0, "groups": ["P7494-7127"], "obcn": "647-201-6479", "nearby_distance": 500.0}, "geometry": {"type": "Point", "coordinates": [-79.39018, 43.672152]}}, {"type": "Feature", "properties": {"station_id": "7128", "name": "Yonge St / Aylmer Ave", "address": "Yonge St / Aylmer Ave", "capacity": 15, "rental_methods": ["KEY", "TRANSITCARD", "CREDITCARD", "PHONE"], "physical_configuration": "REGULAR", "altitude": 0.0, "groups": [], "obcn": "647-641-6641", "nearby_distance": 500.0}, "geometry": {"type": "Point", "coordinates": [-79.388858, 43.675492]}}, {"type": "Feature", "properties": {"station_id": "7129", "name": "Davenport Rd / Avenue Rd", "address": "Davenport Rd / Avenue Rd", "capacity": 11, "rental_methods": ["KEY", "TRANSITCARD", "CREDITCARD", "PHONE"], "physical_configuration": "REGULAR", "altitude": 0.0, "groups": ["P7129-7130"], "obcn": "437-992-7074", "nearby_distance": 500.0}, "geometry": {"type": "Point", "coordinates": [-79.396273, 43.674991]}}, {"type": "Feature", "properties": {"station_id": "7130", "name": "Davenport Rd / Bedford Rd", "address": "Davenport Rd / Bedford Rd", "capacity": 15, "rental_methods": ["KEY", "TRANSITCARD", "CREDITCARD", "PHONE"], "physical_configuration": "REGULAR", "altitude": 0.0, "groups": ["P7129-7130"], "obcn": "647-641-6906", "nearby_distance": 500.0}, "geometry": {"type": "Point", "coordinates": [-79.398331, 43.674446]}}, {"type": "Feature", "properties": {"station_id": "7131", "name": "Taddle Creek Park", "address": "Taddle Creek Park", "capacity": 15, "rental_methods": ["KEY", "TRANSITCARD", "CREDITCARD", "PHONE"], "physical_configuration": "REGULAR", "altitude": 0.0, "groups": [], "obcn": "647-309-1691", "nearby_distance": 500.0}, "geometry": {"type": "Point", "coordinates": [-79.398443, 43.66986]}}, {"type": "Feature", "properties": {"station_id": "7132", "name": "Kendal Ave / Spadina Rd", "address": "Kendal Ave / Spadina Rd", "capacity": 9, "rental_methods": ["KEY", "TRANSITCARD", "CREDITCARD", "PHONE"], "physical_configuration": "REGULAR", "altitude": 0.0, "groups": ["P7132-7143"], "obcn": "647-641-7095", "nearby_distance": 500.0}, "geometry": {"type": "Point", "coordinates": [-79.405181, 43.670318]}}, {"type": "Feature", "properties": {"station_id": "7133", "name": "Summerhill Station", "address": "Summerhill Station", "capacity": 11, "rental_methods": ["KEY", "TRANSITCARD", "CREDITCARD", "PHONE"], "physical_configuration": "REGULAR", "altitude": 0.0, "groups": ["P7133-7134"], "obcn": "647-328-4512", "nearby_distance": 500.0}, "geometry": {"type": "Point", "coordinates": [-79.390556, 43.681944]}}, {"type": "Feature", "properties": {"station_id": "7135", "name": "Hanna Ave / Liberty St", "address": "Hanna Ave / Liberty St", "capacity": 17, "rental_methods": ["KEY", "TRANSITCARD", "CREDITCARD", "PHONE"], "physical_configuration": "REGULAR", "altitude": 0.0, "groups": [], "obcn": "647-280-9962", "nearby_distance": 500.0}, "geometry": {"type": "Point", "coordinates": [-79.4197107, 43.63840090000001]}}, {"type": "Feature", "properties": {"station_id": "7136", "name": "Queen St W / Close Ave", "address": "Queen St W / Close Ave", "capacity": 23, "rental_methods": ["KEY", "TRANSITCARD", "CREDITCARD", "PHONE"], "physical_configuration": "REGULAR", "altitude": 0.0, "groups": [], "obcn": "647-624-8559", "nearby_distance": 500.0}, "geometry": {"type": "Point", "coordinates": [-79.435841, 43.640634]}}, {"type": "Feature", "properties": {"station_id": "7137", "name": "Davenport Rd / Bathurst St", "address": "Davenport Rd / Bathurst St", "capacity": 31, "rental_methods": ["KEY", "TRANSITCARD", "CREDITCARD", "PHONE"], "physical_configuration": "REGULAR", "altitude": 0.0, "groups": [], "obcn": "647-641-6859", "nearby_distance": 500.0}, "geometry": {"type": "Point", "coordinates": [-79.416111, 43.676667]}}, {"type": "Feature", "properties": {"station_id": "7138", "name": "Davenport Rd / Christie St", "address": "Davenport Rd / Christie St", "capacity": 31, "rental_methods": ["KEY", "TRANSITCARD", "CREDITCARD", "PHONE"], "physical_configuration": "REGULAR", "altitude": 0.0, "groups": [], "obcn": "647-669-2814", "nearby_distance": 500.0}, "geometry": {"type": "Point", "coordinates": [-79.423889, 43.675278]}}, {"type": "Feature", "properties": {"station_id": "7139", "name": "Glen Edyth Dr / Davenport Rd", "address": "Glen Edyth Dr / Davenport Rd", "capacity": 15, "rental_methods": ["KEY", "TRANSITCARD", "CREDITCARD", "PHONE"], "physical_configuration": "REGULAR", "altitude": 0.0, "groups": [], "obcn": "647-643-9830", "nearby_distance": 500.0}, "geometry": {"type": "Point", "coordinates": [-79.405556, 43.677778]}}, {"type": "Feature", "properties": {"station_id": "7140", "name": "Macpherson Ave / Spadina Rd", "address": "Macpherson Ave / Spadina Rd", "capacity": 15, "rental_methods": ["KEY", "TRANSITCARD", "CREDITCARD", "PHONE"], "physical_configuration": "REGULAR", "altitude": 0.0, "groups": [], "obcn": "647-669-2824", "nearby_distance": 500.0}, "geometry": {"type": "Point", "coordinates": [-79.40698, 43.675791]}}, {"type": "Feature", "properties": {"station_id": "7141", "name": "Bridgeman Ave / Kendal Ave", "address": "Bridgeman Ave / Kendal Ave", "capacity": 15, "rental_methods": ["KEY", "TRANSITCARD", "CREDITCARD", "PHONE"], "physical_configuration": "REGULAR", "altitude": 0.0, "groups": [], "obcn": "647-640-7641", "nearby_distance": 500.0}, "geometry": {"type": "Point", "coordinates": [-79.410278, 43.675556]}}, {"type": "Feature", "properties": {"station_id": "7142", "name": "Bridgeman Ave / Bathurst St", "address": "Bridgeman Ave / Bathurst St", "capacity": 14, "rental_methods": ["KEY", "TRANSITCARD", "CREDITCARD", "PHONE"], "physical_configuration": "REGULAR", "altitude": 0.0, "groups": [], "obcn": "647-669-4408", "nearby_distance": 500.0}, "geometry": {"type": "Point", "coordinates": [-79.414722, 43.674444]}}, {"type": "Feature", "properties": {"station_id": "7143", "name": "Kendal Ave / Bernard Ave", "address": "Kendal Ave / Bernard Ave", "capacity": 15, "rental_methods": ["KEY", "TRANSITCARD", "CREDITCARD", "PHONE"], "physical_configuration": "REGULAR", "altitude": 0.0, "groups": ["P7132-7143"], "obcn": "647-643-9741", "nearby_distance": 500.0}, "geometry": {"type": "Point", "coordinates": [-79.408317, 43.671513]}}, {"type": "Feature", "properties": {"station_id": "7144", "name": "Palmerston Ave / Vermont Ave", "address": "Palmerston Ave / Vermont Ave", "capacity": 15, "rental_methods": ["KEY", "TRANSITCARD", "CREDITCARD", "PHONE"], "physical_configuration": "REGULAR", "altitude": 0.0, "groups": [], "obcn": "647-284-2560", "nearby_distance": 500.0}, "geometry": {"type": "Point", "coordinates": [-79.416389, 43.671389]}}, {"type": "Feature", "properties": {"station_id": "7146", "name": "Christie St / Benson Ave (Wychwood Barns)", "address": "Christie St / Benson Ave (Wychwood Barns)", "capacity": 19, "rental_methods": ["KEY", "TRANSITCARD", "CREDITCARD", "PHONE"], "physical_configuration": "REGULAR", "altitude": 0.0, "groups": ["P7435-7146"], "obcn": "647-643-9742", "nearby_distance": 500.0}, "geometry": {"type": "Point", "coordinates": [-79.42500000000001, 43.68]}}, {"type": "Feature", "properties": {"station_id": "7147", "name": "King St W / Fraser Ave", "address": "King St W / Fraser Ave", "capacity": 15, "rental_methods": ["KEY", "TRANSITCARD", "CREDITCARD", "PHONE"], "physical_configuration": "REGULAR", "altitude": 0.0, "groups": [], "obcn": "647-669-3846", "nearby_distance": 500.0}, "geometry": {"type": "Point", "coordinates": [-79.42527777777778, 43.6394444]}}, {"type": "Feature", "properties": {"station_id": "7148", "name": "King St W / Joe Shuster Way", "address": "King St W / Joe Shuster Way", "capacity": 15, "rental_methods": ["KEY", "TRANSITCARD", "CREDITCARD", "PHONE"], "physical_configuration": "REGULAR", "altitude": 0.0, "groups": [], "obcn": "647-285-4281", "nearby_distance": 500.0}, "geometry": {"type": "Point", "coordinates": [-79.423611, 43.639444]}}, {"type": "Feature", "properties": {"station_id": "7149", "name": "Yarmouth Rd / Christie St", "address": "Yarmouth Rd / Christie St", "capacity": 11, "rental_methods": ["KEY", "TRANSITCARD", "CREDITCARD", "PHONE"], "physical_configuration": "REGULAR", "altitude": 0.0, "groups": ["P7149-7151"], "obcn": "647-287-2061", "nearby_distance": 500.0}, "geometry": {"type": "Point", "coordinates": [-79.42083333333333, 43.67]}}, {"type": "Feature", "properties": {"station_id": "7150", "name": "Dufferin St / Sylvan Av (Dufferin Grove Park)", "address": "Dufferin St / Sylvan Av (Dufferin Grove Park)", "capacity": 19, "rental_methods": ["KEY", "TRANSITCARD", "CREDITCARD", "PHONE"], "physical_configuration": "REGULAR", "altitude": 0.0, "groups": [], "obcn": "647-643-9812", "nearby_distance": 500.0}, "geometry": {"type": "Point", "coordinates": [-79.43361111111112, 43.6555556]}}, {"type": "Feature", "properties": {"station_id": "7151", "name": "Essex St / Christie St - SMART", "address": "Essex St / Christie St", "capacity": 19, "rental_methods": ["KEY", "TRANSITCARD", "CREDITCARD", "PHONE"], "physical_configuration": "REGULAR", "altitude": 0.0, "groups": ["P7149-7151"], "obcn": "647-643-9745", "nearby_distance": 500.0}, "geometry": {"type": "Point", "coordinates": [-79.42027777777778, 43.6686111]}}, {"type": "Feature", "properties": {"station_id": "7152", "name": "Ossington Ave / Bloor St W", "address": "Ossington Ave / Bloor St W", "capacity": 11, "rental_methods": ["KEY", "TRANSITCARD", "CREDITCARD", "PHONE"], "physical_configuration": "REGULAR", "altitude": 0.0, "groups": ["P7152-7437"], "obcn": "647-286-9204", "nearby_distance": 500.0}, "geometry": {"type": "Point", "coordinates": [-79.425734, 43.661705]}}, {"type": "Feature", "properties": {"station_id": "7153", "name": "Bloor St W / Christie St", "address": "Bloor St W / Christie St", "capacity": 19, "rental_methods": ["KEY", "TRANSITCARD", "CREDITCARD", "PHONE"], "physical_configuration": "REGULAR", "altitude": 0.0, "groups": [], "obcn": "647-643-9744", "nearby_distance": 500.0}, "geometry": {"type": "Point", "coordinates": [-79.41888888888889, 43.6638889]}}, {"type": "Feature", "properties": {"station_id": "7154", "name": "Bathurst Subway Station", "address": "Bathurst Subway Station", "capacity": 23, "rental_methods": ["KEY", "TRANSITCARD", "CREDITCARD", "PHONE"], "physical_configuration": "REGULAR", "altitude": 0.0, "groups": [], "obcn": "647-289-4712", "nearby_distance": 500.0}, "geometry": {"type": "Point", "coordinates": [-79.41166666666668, 43.6666667]}}, {"type": "Feature", "properties": {"station_id": "7155", "name": "Bathurst St / Lennox St", "address": "Bathurst St / Lennox St", "capacity": 19, "rental_methods": ["KEY", "TRANSITCARD", "CREDITCARD", "PHONE"], "physical_configuration": "REGULAR", "altitude": 0.0, "groups": [], "obcn": "647-643-9750", "nearby_distance": 500.0}, "geometry": {"type": "Point", "coordinates": [-79.410491, 43.663808]}}, {"type": "Feature", "properties": {"station_id": "7156", "name": "Salem Ave / Bloor St W", "address": "Salem Ave / Bloor St W", "capacity": 15, "rental_methods": ["KEY", "TRANSITCARD", "CREDITCARD", "PHONE"], "physical_configuration": "REGULAR", "altitude": 0.0, "groups": [], "obcn": "647-289-9256", "nearby_distance": 500.0}, "geometry": {"type": "Point", "coordinates": [-79.43166666666667, 43.6608333]}}, {"type": "Feature", "properties": {"station_id": "7157", "name": "Dufferin St / Bloor St", "address": "Dufferin St / Bloor St", "capacity": 22, "rental_methods": ["KEY", "TRANSITCARD", "CREDITCARD", "PHONE"], "physical_configuration": "REGULAR", "altitude": 0.0, "groups": [], "obcn": "647-309-0950", "nearby_distance": 500.0}, "geometry": {"type": "Point", "coordinates": [-79.43583333333333, 43.66083333333333]}}, {"type": "Feature", "properties": {"station_id": "7158", "name": "King St W / Stafford St", "address": "King St W / Stafford St", "capacity": 15, "rental_methods": ["KEY", "TRANSITCARD", "CREDITCARD", "PHONE"], "physical_configuration": "REGULAR", "altitude": 0.0, "groups": [], "obcn": "647-300-9735", "nearby_distance": 500.0}, "geometry": {"type": "Point", "coordinates": [-79.41111111111111, 43.6422222]}}, {"type": "Feature", "properties": {"station_id": "7160", "name": "King St W / Tecumseth St", "address": "King St W / Tecumseth St", "capacity": 15, "rental_methods": ["KEY", "TRANSITCARD", "CREDITCARD", "PHONE"], "physical_configuration": "REGULAR", "altitude": 0.0, "groups": [], "obcn": "647-302-3804", "nearby_distance": 500.0}, "geometry": {"type": "Point", "coordinates": [-79.40555555555557, 43.64333333333333]}}, {"type": "Feature", "properties": {"station_id": "7161", "name": "Beverley St / College St", "address": "Beverley St / College St", "capacity": 23, "rental_methods": ["KEY", "TRANSITCARD", "CREDITCARD", "PHONE"], "physical_configuration": "REGULAR", "altitude": 0.0, "groups": [], "obcn": "647-643-9768", "nearby_distance": 500.0}, "geometry": {"type": "Point", "coordinates": [-79.39527777777778, 43.6575]}}, {"type": "Feature", "properties": {"station_id": "7162", "name": "Hayter St / Laplante Ave", "address": "Hayter St / Laplante Ave", "capacity": 23, "rental_methods": ["KEY", "TRANSITCARD", "CREDITCARD", "PHONE"], "physical_configuration": "REGULAR", "altitude": 0.0, "groups": [], "obcn": "647-669-1302", "nearby_distance": 500.0}, "geometry": {"type": "Point", "coordinates": [-79.3855555555556, 43.6591666666667]}}, {"type": "Feature", "properties": {"station_id": "7163", "name": "Yonge St / Wood St", "address": "Yonge St / Wood St", "capacity": 15, "rental_methods": ["KEY", "TRANSITCARD", "CREDITCARD", "PHONE"], "physical_configuration": "REGULAR", "altitude": 0.0, "groups": [], "obcn": "647-643-9754", "nearby_distance": 500.0}, "geometry": {"type": "Point", "coordinates": [-79.3825, 43.6622222]}}, {"type": "Feature", "properties": {"station_id": "7164", "name": "Gould St / Yonge St (Ryerson University)", "address": "Gould St / Yonge St (Ryerson University)", "capacity": 22, "rental_methods": ["KEY", "TRANSITCARD", "CREDITCARD", "PHONE"], "physical_configuration": "REGULAR", "altitude": 0.0, "groups": [], "obcn": "647-292-0183", "nearby_distance": 500.0}, "geometry": {"type": "Point", "coordinates": [-79.381019, 43.657424]}}, {"type": "Feature", "properties": {"station_id": "7168", "name": "Queens Quay / Yonge St", "address": "Queens Quay / Yonge St", "capacity": 31, "rental_methods": ["KEY", "TRANSITCARD", "CREDITCARD", "PHONE"], "physical_configuration": "REGULAR", "altitude": 0.0, "groups": [], "obcn": "647-643-9780", "nearby_distance": 500.0}, "geometry": {"type": "Point", "coordinates": [-79.375308, 43.641646]}}, {"type": "Feature", "properties": {"station_id": "7169", "name": "Front St W / Bay St (North Side)", "address": "Front St W / Bay St (North Side)", "capacity": 11, "rental_methods": ["KEY", "TRANSITCARD", "CREDITCARD", "PHONE"], "physical_configuration": "REGULAR", "altitude": 0.0, "groups": ["P7169-7283"], "obcn": "437-992-6547", "nearby_distance": 500.0}, "geometry": {"type": "Point", "coordinates": [-79.378912, 43.646162]}}, {"type": "Feature", "properties": {"station_id": "7170", "name": "Spadina Ave / Willcocks St", "address": "Spadina Ave / Willcocks St", "capacity": 15, "rental_methods": ["KEY", "TRANSITCARD", "CREDITCARD", "PHONE"], "physical_configuration": "REGULAR", "altitude": 0.0, "groups": ["P7285-7170"], "obcn": "647-293-0441", "nearby_distance": 500.0}, "geometry": {"type": "Point", "coordinates": [-79.40138888888889, 43.6616667]}}, {"type": "Feature", "properties": {"station_id": "7171", "name": "Ontario Place Blvd / Lake Shore Blvd W (East)", "address": "Ontario Place Blvd / Lake Shore Blvd W (East)", "capacity": 27, "rental_methods": ["KEY", "TRANSITCARD", "CREDITCARD", "PHONE"], "physical_configuration": "REGULAR", "altitude": 0.0, "groups": [], "obcn": "647-294-0390", "nearby_distance": 500.0}, "geometry": {"type": "Point", "coordinates": [-79.4108105, 43.6322445]}}, {"type": "Feature", "properties": {"station_id": "7172", "name": "Strachan Ave / Princes' Blvd", "address": "Strachan Ave / Princes' Blvd", "capacity": 19, "rental_methods": ["KEY", "TRANSITCARD", "CREDITCARD", "PHONE"], "physical_configuration": "REGULAR", "altitude": 0.0, "groups": [], "obcn": "647-294-5248", "nearby_distance": 500.0}, "geometry": {"type": "Point", "coordinates": [-79.4088888888889, 43.635]}}, {"type": "Feature", "properties": {"station_id": "7173", "name": "Cariboo St / Rail Path", "address": "Cariboo St / Rail Path", "capacity": 19, "rental_methods": ["KEY", "TRANSITCARD", "CREDITCARD", "PHONE"], "physical_configuration": "REGULAR", "altitude": 0.0, "groups": [], "obcn": "647-643-9769", "nearby_distance": 500.0}, "geometry": {"type": "Point", "coordinates": [-79.45833333333334, 43.66666667]}}, {"type": "Feature", "properties": {"station_id": "7174", "name": "Bloor St W / Dundas St W", "address": "Bloor St W / Dundas St W", "capacity": 15, "rental_methods": ["KEY", "TRANSITCARD", "CREDITCARD", "PHONE"], "physical_configuration": "REGULAR", "altitude": 0.0, "groups": [], "obcn": "647-296-3378", "nearby_distance": 500.0}, "geometry": {"type": "Point", "coordinates": [-79.45166666666667, 43.6563889]}}, {"type": "Feature", "properties": {"station_id": "7175", "name": "HTO Park (Queens Quay W)", "address": "HTO Park (Queens Quay W)", "capacity": 27, "rental_methods": ["KEY", "TRANSITCARD", "CREDITCARD", "PHONE"], "physical_configuration": "REGULAR", "altitude": 0.0, "groups": [], "obcn": "647-643-9853", "nearby_distance": 500.0}, "geometry": {"type": "Point", "coordinates": [-79.387502, 43.63796]}}, {"type": "Feature", "properties": {"station_id": "7176", "name": "Bathurst St / Fort York Blvd", "address": "Bathurst St / Fort York Blvd", "capacity": 19, "rental_methods": ["KEY", "TRANSITCARD", "CREDITCARD", "PHONE"], "physical_configuration": "REGULAR", "altitude": 0.0, "groups": [], "obcn": "647-643-9795", "nearby_distance": 500.0}, "geometry": {"type": "Point", "coordinates": [-79.399595, 43.639179]}}, {"type": "Feature", "properties": {"station_id": "7178", "name": "Dundas St W / Edna Ave", "address": "Dundas St W / Edna Ave", "capacity": 15, "rental_methods": ["KEY", "TRANSITCARD", "CREDITCARD", "PHONE"], "physical_configuration": "REGULAR", "altitude": 0.0, "groups": [], "obcn": "647-643-9783", "nearby_distance": 500.0}, "geometry": {"type": "Point", "coordinates": [-79.452559, 43.657192]}}, {"type": "Feature", "properties": {"station_id": "7180", "name": "Lansdowne Subway Station", "address": "Lansdowne Ave / Wade Ave", "capacity": 23, "rental_methods": ["KEY", "TRANSITCARD", "CREDITCARD", "PHONE"], "physical_configuration": "REGULAR", "altitude": 0.0, "groups": [], "obcn": "647-643-9759", "nearby_distance": 500.0}, "geometry": {"type": "Point", "coordinates": [-79.443054, 43.6587734]}}, {"type": "Feature", "properties": {"station_id": "7181", "name": "Lansdowne Ave / Whytock Ave", "address": "Lansdowne Ave / Whytock Ave", "capacity": 15, "rental_methods": ["KEY", "TRANSITCARD", "CREDITCARD", "PHONE"], "physical_configuration": "REGULAR", "altitude": 0.0, "groups": [], "obcn": "647-295-6052", "nearby_distance": 500.0}, "geometry": {"type": "Point", "coordinates": [-79.4413888888889, 43.6538888888889]}}, {"type": "Feature", "properties": {"station_id": "7182", "name": "Sterling Rd / Dundas St W", "address": "Sterling Rd / Dundas St W", "capacity": 19, "rental_methods": ["KEY", "TRANSITCARD", "CREDITCARD", "PHONE"], "physical_configuration": "REGULAR", "altitude": 0.0, "groups": [], "obcn": "647-643-9791", "nearby_distance": 500.0}, "geometry": {"type": "Point", "coordinates": [-79.4430555555556, 43.6508333333333]}}, {"type": "Feature", "properties": {"station_id": "7183", "name": "St Clarens Ave / College St", "address": "St Clarens Ave / College St", "capacity": 15, "rental_methods": ["KEY", "TRANSITCARD", "CREDITCARD", "PHONE"], "physical_configuration": "REGULAR", "altitude": 0.0, "groups": [], "obcn": "647-300-6130", "nearby_distance": 500.0}, "geometry": {"type": "Point", "coordinates": [-79.43868, 43.651238]}}, {"type": "Feature", "properties": {"station_id": "7184", "name": "Ossington Ave / College St", "address": "Ossington Ave / College St", "capacity": 11, "rental_methods": ["KEY", "TRANSITCARD", "CREDITCARD", "PHONE"], "physical_configuration": "REGULAR", "altitude": 0.0, "groups": ["P7184-7205"], "obcn": "647-643-9789", "nearby_distance": 500.0}, "geometry": {"type": "Point", "coordinates": [-79.422634, 43.6544915]}}, {"type": "Feature", "properties": {"station_id": "7188", "name": "Exhibition GO (Atlantic Ave)", "address": "Exhibition GO (Atlantic Ave)", "capacity": 23, "rental_methods": ["KEY", "TRANSITCARD", "CREDITCARD", "PHONE"], "physical_configuration": "REGULAR", "altitude": 0.0, "groups": [], "obcn": "647-643-9764", "nearby_distance": 500.0}, "geometry": {"type": "Point", "coordinates": [-79.4197222222222, 43.6366666666667]}}, {"type": "Feature", "properties": {"station_id": "7189", "name": "Augusta Ave / Denison Sq", "address": "Augusta Ave / Denison Sq", "capacity": 15, "rental_methods": ["KEY", "TRANSITCARD", "CREDITCARD", "PHONE"], "physical_configuration": "REGULAR", "altitude": 0.0, "groups": [], "obcn": "647-285-0348", "nearby_distance": 500.0}, "geometry": {"type": "Point", "coordinates": [-79.4016759, 43.653766]}}, {"type": "Feature", "properties": {"station_id": "7190", "name": "St. George St / Hoskin Ave", "address": "St. George St / Hoskin Ave", "capacity": 15, "rental_methods": ["KEY", "TRANSITCARD", "CREDITCARD", "PHONE"], "physical_configuration": "REGULAR", "altitude": 0.0, "groups": [], "obcn": "647-669-1645", "nearby_distance": 500.0}, "geometry": {"type": "Point", "coordinates": [-79.39806449999999, 43.6637403]}}, {"type": "Feature", "properties": {"station_id": "7191", "name": "Central Tech  (Harbord St)", "address": "Central Tech (Harbord St)", "capacity": 11, "rental_methods": ["KEY", "TRANSITCARD", "CREDITCARD", "PHONE"], "physical_configuration": "REGULAR", "altitude": 0.0, "groups": ["P7191-7195"], "obcn": "647-643-9801", "nearby_distance": 500.0}, "geometry": {"type": "Point", "coordinates": [-79.407896, 43.661975]}}, {"type": "Feature", "properties": {"station_id": "7192", "name": "Harbord St / Clinton St", "address": "Harbord St / Clinton St", "capacity": 15, "rental_methods": ["KEY", "TRANSITCARD", "CREDITCARD", "PHONE"], "physical_configuration": "REGULAR", "altitude": 0.0, "groups": ["P7208-7192"], "obcn": "647-669-1501", "nearby_distance": 500.0}, "geometry": {"type": "Point", "coordinates": [-79.415646, 43.660414]}}, {"type": "Feature", "properties": {"station_id": "7193", "name": "Queen St W / Gladstone Ave", "address": "Queen St W / Gladstone Ave", "capacity": 23, "rental_methods": ["KEY", "TRANSITCARD", "CREDITCARD", "PHONE"], "physical_configuration": "REGULAR", "altitude": 0.0, "groups": [], "obcn": "647-405-2875", "nearby_distance": 500.0}, "geometry": {"type": "Point", "coordinates": [-79.4275, 43.6430555555556]}}, {"type": "Feature", "properties": {"station_id": "7194", "name": "Mortimer Ave / Coxwell Ave", "address": "Mortimer Ave / Coxwell Ave", "capacity": 23, "rental_methods": ["KEY", "TRANSITCARD", "CREDITCARD", "PHONE"], "physical_configuration": "REGULAR", "altitude": 0.0, "groups": [], "obcn": "647-669-1379", "nearby_distance": 500.0}, "geometry": {"type": "Point", "coordinates": [-79.326319, 43.690564]}}, {"type": "Feature", "properties": {"station_id": "7195", "name": "Ulster St / Bathurst St", "address": "Ulster St / Bathurst St", "capacity": 11, "rental_methods": ["KEY", "TRANSITCARD", "CREDITCARD", "PHONE"], "physical_configuration": "REGULAR", "altitude": 0.0, "groups": ["P7191-7195"], "obcn": "647-643-9821", "nearby_distance": 500.0}, "geometry": {"type": "Point", "coordinates": [-79.4088888888889, 43.66]}}, {"type": "Feature", "properties": {"station_id": "7196", "name": "Roxton Rd / Harbord St", "address": "Roxton Rd / Harbord St", "capacity": 11, "rental_methods": ["KEY", "TRANSITCARD", "CREDITCARD", "PHONE"], "physical_configuration": "REGULAR", "altitude": 0.0, "groups": ["P7196-7360"], "obcn": "647-643-9811", "nearby_distance": 500.0}, "geometry": {"type": "Point", "coordinates": [-79.422988, 43.65905]}}, {"type": "Feature", "properties": {"station_id": "7197", "name": "Queen St W / Dovercourt Rd", "address": "Queen St W / Dovercourt Rd", "capacity": 11, "rental_methods": ["KEY", "TRANSITCARD", "CREDITCARD", "PHONE"], "physical_configuration": "REGULAR", "altitude": 0.0, "groups": ["P7197-7035"], "obcn": "647-643-9863", "nearby_distance": 500.0}, "geometry": {"type": "Point", "coordinates": [-79.4227573, 43.6438602]}}, {"type": "Feature", "properties": {"station_id": "7198", "name": "Queen St W / Cowan Ave", "address": "Queen St W / Cowan Ave", "capacity": 19, "rental_methods": ["KEY", "TRANSITCARD", "CREDITCARD", "PHONE"], "physical_configuration": "REGULAR", "altitude": 0.0, "groups": [], "obcn": "647-244-9310", "nearby_distance": 500.0}, "geometry": {"type": "Point", "coordinates": [-79.432837, 43.6409]}}, {"type": "Feature", "properties": {"station_id": "7199", "name": "College St / Markham St", "address": "College St / Markham St", "capacity": 19, "rental_methods": ["KEY", "TRANSITCARD", "CREDITCARD", "PHONE"], "physical_configuration": "REGULAR", "altitude": 0.0, "groups": [], "obcn": "647-643-9817", "nearby_distance": 500.0}, "geometry": {"type": "Point", "coordinates": [-79.4091666666667, 43.6563888888889]}}, {"type": "Feature", "properties": {"station_id": "7202", "name": "Queen St W / Bay St (City Hall)", "address": "Queen St W / York St (City Hall)", "capacity": 23, "rental_methods": ["KEY", "TRANSITCARD", "CREDITCARD", "PHONE"], "physical_configuration": "REGULAR", "altitude": 0.0, "groups": [], "obcn": "647-629-5943", "nearby_distance": 500.0}, "geometry": {"type": "Point", "coordinates": [-79.38269509999999, 43.6517925]}}, {"type": "Feature", "properties": {"station_id": "7203", "name": "Bathurst St/Queens Quay(Billy Bishop Airport)", "address": "Bathurst St/Queens Quay(Billy Bishop Airport)", "capacity": 35, "rental_methods": ["KEY", "TRANSITCARD", "CREDITCARD", "PHONE"], "physical_configuration": "REGULAR", "altitude": 0.0, "groups": [], "obcn": "647-669-4303", "nearby_distance": 500.0}, "geometry": {"type": "Point", "coordinates": [-79.398253, 43.635492]}}, {"type": "Feature", "properties": {"station_id": "7204", "name": "College St / Crawford St", "address": "College St / Crawford St", "capacity": 19, "rental_methods": ["KEY", "TRANSITCARD", "CREDITCARD", "PHONE"], "physical_configuration": "REGULAR", "altitude": 0.0, "groups": [], "obcn": "647-530-9928", "nearby_distance": 500.0}, "geometry": {"type": "Point", "coordinates": [-79.418889, 43.655]}}, {"type": "Feature", "properties": {"station_id": "7205", "name": "Rusholme Park Cres / College St", "address": "Rusholme Park Cres / College St", "capacity": 15, "rental_methods": ["KEY", "TRANSITCARD", "CREDITCARD", "PHONE"], "physical_configuration": "REGULAR", "altitude": 0.0, "groups": ["P7184-7205"], "obcn": "647-633-4094", "nearby_distance": 500.0}, "geometry": {"type": "Point", "coordinates": [-79.42972222, 43.65277778]}}, {"type": "Feature", "properties": {"station_id": "7206", "name": "Claremont St / Dundas St W", "address": "Claremont St / Dundas St W", "capacity": 13, "rental_methods": ["KEY", "TRANSITCARD", "CREDITCARD", "PHONE"], "physical_configuration": "REGULAR", "altitude": 0.0, "groups": [], "obcn": "647-530-5659", "nearby_distance": 500.0}, "geometry": {"type": "Point", "coordinates": [-79.411717, 43.651281]}}, {"type": "Feature", "properties": {"station_id": "7207", "name": "Dundas St W / Crawford St", "address": "Dundas St W / Crawford St", "capacity": 23, "rental_methods": ["KEY", "TRANSITCARD", "CREDITCARD", "PHONE"], "physical_configuration": "REGULAR", "altitude": 0.0, "groups": [], "obcn": "647-669-3017", "nearby_distance": 500.0}, "geometry": {"type": "Point", "coordinates": [-79.416944, 43.649722]}}, {"type": "Feature", "properties": {"station_id": "7208", "name": "80 Clinton St (North of College)", "address": "80 Clinton St (North of College)", "capacity": 14, "rental_methods": ["KEY", "TRANSITCARD", "CREDITCARD", "PHONE"], "physical_configuration": "REGULAR", "altitude": 0.0, "groups": ["P7208-7192"], "obcn": "647-530-1442", "nearby_distance": 500.0}, "geometry": {"type": "Point", "coordinates": [-79.414663, 43.656296]}}, {"type": "Feature", "properties": {"station_id": "7209", "name": "Ossington Ave / Harrison St", "address": "Ossington Ave / Harrison St", "capacity": 19, "rental_methods": ["KEY", "TRANSITCARD", "CREDITCARD", "PHONE"], "physical_configuration": "REGULAR", "altitude": 0.0, "groups": ["P7249-7209"], "obcn": "647-669-4279", "nearby_distance": 500.0}, "geometry": {"type": "Point", "coordinates": [-79.4213888888889, 43.651111111111106]}}, {"type": "Feature", "properties": {"station_id": "7210", "name": "Mary McCormick Rec Centre (Sheridan Ave)", "address": "Mary McCormick Rec Centre (Sheridan Ave)", "capacity": 15, "rental_methods": ["KEY", "TRANSITCARD", "CREDITCARD", "PHONE"], "physical_configuration": "REGULAR", "altitude": 0.0, "groups": [], "obcn": "647-504-1948", "nearby_distance": 500.0}, "geometry": {"type": "Point", "coordinates": [-79.43305555555555, 43.6475]}}, {"type": "Feature", "properties": {"station_id": "7211", "name": "Fort York Blvd / Garrison Rd", "address": "Fort York Blvd / Garrison Rd", "capacity": 15, "rental_methods": ["KEY", "TRANSITCARD", "CREDITCARD", "PHONE"], "physical_configuration": "REGULAR", "altitude": 0.0, "groups": [], "obcn": "647-669-3872", "nearby_distance": 500.0}, "geometry": {"type": "Point", "coordinates": [-79.406112, 43.637381]}}, {"type": "Feature", "properties": {"station_id": "7216", "name": "Wellington St W / Stafford St", "address": "Wellington St W / Stafford St", "capacity": 23, "rental_methods": ["KEY", "TRANSITCARD", "CREDITCARD", "PHONE"], "physical_configuration": "REGULAR", "altitude": 0.0, "groups": [], "obcn": "647-643-9874", "nearby_distance": 500.0}, "geometry": {"type": "Point", "coordinates": [-79.40966630000001, 43.6409957]}}, {"type": "Feature", "properties": {"station_id": "7217", "name": "Soho St / Queen St W", "address": "Soho St. / Queen St W", "capacity": 7, "rental_methods": ["KEY", "TRANSITCARD", "CREDITCARD", "PHONE"], "physical_configuration": "REGULAR", "altitude": 0.0, "groups": [], "obcn": "647-669-1785", "nearby_distance": 500.0}, "geometry": {"type": "Point", "coordinates": [-79.393535, 43.6494896]}}, {"type": "Feature", "properties": {"station_id": "7220", "name": "Lake Shore Blvd W / Ellis Ave", "address": "Lake Shore Blvd W / Ellis Ave", "capacity": 19, "rental_methods": ["KEY", "TRANSITCARD", "CREDITCARD", "PHONE"], "physical_configuration": "REGULAR", "altitude": 0.0, "groups": [], "obcn": "647-502-8498", "nearby_distance": 1000.0}, "geometry": {"type": "Point", "coordinates": [-79.465083, 43.635932]}}, {"type": "Feature", "properties": {"station_id": "7221", "name": "High Park Subway Station", "address": "High Park Subway Station", "capacity": 11, "rental_methods": ["KEY", "TRANSITCARD", "CREDITCARD", "PHONE"], "physical_configuration": "REGULAR", "altitude": 0.0, "groups": [], "obcn": "647-669-0254", "nearby_distance": 1000.0}, "geometry": {"type": "Point", "coordinates": [-79.4655296, 43.6543604]}}, {"type": "Feature", "properties": {"station_id": "7222", "name": "Sunnyside - Gus Ryder Pool", "address": "Sunnyside - Gus Ryder Pool", "capacity": 27, "rental_methods": ["KEY", "TRANSITCARD", "CREDITCARD", "PHONE"], "physical_configuration": "REGULAR", "altitude": 0.0, "groups": [], "obcn": "647-339-2011", "nearby_distance": 1000.0}, "geometry": {"type": "Point", "coordinates": [-79.454823, 43.637894]}}, {"type": "Feature", "properties": {"station_id": "7223", "name": "Parkside Dr / Bloor St W - SMART", "address": "Parkside Dr / Bloor St W", "capacity": 12, "rental_methods": ["KEY", "TRANSITCARD", "PHONE"], "physical_configuration": "SMARTMAPFRAME", "altitude": 0.0, "groups": ["P7223-7224"], "obcn": "647-669-0176", "nearby_distance": 1000.0}, "geometry": {"type": "Point", "coordinates": [-79.460053, 43.654501]}}, {"type": "Feature", "properties": {"station_id": "7224", "name": "Bloor St W / High Park Ave (High Park)", "address": "Bloor St W / High Park Ave (High Park)", "capacity": 23, "rental_methods": ["KEY", "TRANSITCARD", "CREDITCARD", "PHONE"], "physical_configuration": "REGULAR", "altitude": 0.0, "groups": ["P7223-7224"], "obcn": "647-405-1809", "nearby_distance": 1000.0}, "geometry": {"type": "Point", "coordinates": [-79.4650569, 43.6535269]}}, {"type": "Feature", "properties": {"station_id": "7225", "name": "Lake Shore Blvd W / Windermere Ave", "address": "Lake Shore Blvd W / Windermere Ave", "capacity": 19, "rental_methods": ["KEY", "TRANSITCARD", "CREDITCARD", "PHONE"], "physical_configuration": "REGULAR", "altitude": 0.0, "groups": [], "obcn": "647-330-4430", "nearby_distance": 1000.0}, "geometry": {"type": "Point", "coordinates": [-79.467763, 43.634896]}}, {"type": "Feature", "properties": {"station_id": "7226", "name": "Lake Shore Blvd W / The Boulevard Club", "address": "Lake Shore Blvd W / The Boulevard Club", "capacity": 19, "rental_methods": ["KEY", "TRANSITCARD", "CREDITCARD", "PHONE"], "physical_configuration": "REGULAR", "altitude": 0.0, "groups": [], "obcn": "647-643-9869", "nearby_distance": 1000.0}, "geometry": {"type": "Point", "coordinates": [-79.444966, 43.636731]}}, {"type": "Feature", "properties": {"station_id": "7227", "name": "Martin Goodman Trail (Marilyn Bell Park)", "address": "Martin Goodman Trail (Marilyn Bell Park)", "capacity": 31, "rental_methods": ["KEY", "TRANSITCARD", "CREDITCARD", "PHONE"], "physical_configuration": "REGULAR", "altitude": 0.0, "groups": [], "obcn": "647-338-5620", "nearby_distance": 1000.0}, "geometry": {"type": "Point", "coordinates": [-79.4304, 43.6314]}}, {"type": "Feature", "properties": {"station_id": "7228", "name": "Queen St W / Roncesvalles Ave", "address": "Queen St W / Roncesvalles Ave", "capacity": 19, "rental_methods": ["KEY", "TRANSITCARD", "CREDITCARD", "PHONE"], "physical_configuration": "REGULAR", "altitude": 0.0, "groups": [], "obcn": "647-669-0897", "nearby_distance": 1000.0}, "geometry": {"type": "Point", "coordinates": [-79.4423237, 43.6372958]}}, {"type": "Feature", "properties": {"station_id": "7229", "name": "Dundas St W / Roncesvalles Green P - SMART", "address": "Dundas St W / Roncesvalles Green P", "capacity": 12, "rental_methods": ["KEY", "TRANSITCARD", "PHONE"], "physical_configuration": "SMARTMAPFRAME", "altitude": 0.0, "groups": ["P7229-7247"], "obcn": "437-992-7377", "nearby_distance": 1000.0}, "geometry": {"type": "Point", "coordinates": [-79.4512787, 43.6534268]}}, {"type": "Feature", "properties": {"station_id": "7230", "name": "Garden Ave / Roncesvalles Ave", "address": "Garden Ave / Roncesvalles Ave", "capacity": 18, "rental_methods": ["KEY", "TRANSITCARD", "CREDITCARD", "PHONE"], "physical_configuration": "REGULAR", "altitude": 0.0, "groups": [], "obcn": "647-669-0128", "nearby_distance": 1000.0}, "geometry": {"type": "Point", "coordinates": [-79.447915, 43.643769]}}, {"type": "Feature", "properties": {"station_id": "7231", "name": "Wright / Sorauren (Sorauren Park) - SMART", "address": "Wright Ave / Sorauren St (Sorauren Park)", "capacity": 18, "rental_methods": ["KEY", "TRANSITCARD", "PHONE"], "physical_configuration": "SMARTMAPFRAME", "altitude": 0.0, "groups": [], "obcn": "437-992-0663", "nearby_distance": 1000.0}, "geometry": {"type": "Point", "coordinates": [-79.442741, 43.646677]}}, {"type": "Feature", "properties": {"station_id": "7232", "name": "Queen St W  /  Fuller Ave - SMART", "address": "Queen St W / Fuller Ave", "capacity": 16, "rental_methods": ["KEY", "TRANSITCARD", "PHONE"], "physical_configuration": "SMARTMAPFRAME", "altitude": 0.0, "groups": [], "obcn": "647-669-0539", "nearby_distance": 1000.0}, "geometry": {"type": "Point", "coordinates": [-79.439223, 43.640255]}}, {"type": "Feature", "properties": {"station_id": "7233", "name": "King / Cowan Ave - SMART", "address": "King St W / Cowan Ave", "capacity": 16, "rental_methods": ["KEY", "TRANSITCARD", "PHONE"], "physical_configuration": "SMARTMAPFRAME", "altitude": 0.0, "groups": [], "obcn": "647-669-3856", "nearby_distance": 1000.0}, "geometry": {"type": "Point", "coordinates": [-79.431734, 43.637922]}}, {"type": "Feature", "properties": {"station_id": "7234", "name": "Roncesvalles Ave / Marmaduke St", "address": "Roncesvalles Ave / Marmaduke St", "capacity": 19, "rental_methods": ["KEY", "TRANSITCARD", "CREDITCARD", "PHONE"], "physical_configuration": "REGULAR", "altitude": 0.0, "groups": [], "obcn": "647-400-6814", "nearby_distance": 1000.0}, "geometry": {"type": "Point", "coordinates": [-79.450842, 43.650492]}}, {"type": "Feature", "properties": {"station_id": "7235", "name": "Bay St / College St (West Side) - SMART", "address": "Bay St / College St (West Side)", "capacity": 12, "rental_methods": ["KEY", "TRANSITCARD", "PHONE"], "physical_configuration": "SMARTMAPFRAME", "altitude": 0.0, "groups": ["P7006-7235"], "obcn": "437-992-0779", "nearby_distance": 1000.0}, "geometry": {"type": "Point", "coordinates": [-79.385655, 43.660087]}}, {"type": "Feature", "properties": {"station_id": "7236", "name": "Thompson St / Broadview Ave - SMART", "address": "Thompson St / Broadview Ave", "capacity": 12, "rental_methods": ["KEY", "TRANSITCARD", "PHONE"], "physical_configuration": "SMARTMAPFRAME", "altitude": 0.0, "groups": ["P7103-7236"], "obcn": "437-992-2970", "nearby_distance": 1000.0}, "geometry": {"type": "Point", "coordinates": [-79.350325, 43.659471]}}, {"type": "Feature", "properties": {"station_id": "7237", "name": "Ward Ave / Wallace Ave", "address": "Ward Ave / Wallace Ave", "capacity": 15, "rental_methods": ["KEY", "TRANSITCARD", "CREDITCARD", "PHONE"], "physical_configuration": "REGULAR", "altitude": 0.0, "groups": ["P7265-7237"], "obcn": "647-643-9824", "nearby_distance": 1000.0}, "geometry": {"type": "Point", "coordinates": [-79.446444, 43.663337]}}, {"type": "Feature", "properties": {"station_id": "7238", "name": "Sorauren/Geoffrey (Sorauren Park) - SMART", "address": "Sorauren St / Geoffrey St (Sorauren Park)", "capacity": 16, "rental_methods": ["KEY", "TRANSITCARD", "PHONE"], "physical_configuration": "SMARTMAPFRAME", "altitude": 0.0, "groups": [], "obcn": "437-992-0948", "nearby_distance": 1000.0}, "geometry": {"type": "Point", "coordinates": [-79.4445087, 43.649172]}}, {"type": "Feature", "properties": {"station_id": "7239", "name": "Bloor St W / Manning Ave - SMART", "address": "Bloor St W / Manning Ave", "capacity": 20, "rental_methods": ["KEY", "TRANSITCARD", "PHONE"], "physical_configuration": "SMARTMAPFRAME", "altitude": 0.0, "groups": [], "obcn": "437-992-4514", "nearby_distance": 1000.0}, "geometry": {"type": "Point", "coordinates": [-79.416124, 43.663912]}}, {"type": "Feature", "properties": {"station_id": "7240", "name": "Bloor St W / Shaw Ave - SMART", "address": "Bloor St W / Shaw Ave", "capacity": 34, "rental_methods": ["KEY", "TRANSITCARD", "PHONE"], "physical_configuration": "SMARTMAPFRAME", "altitude": 0.0, "groups": [], "obcn": "437-992-3508", "nearby_distance": 1000.0}, "geometry": {"type": "Point", "coordinates": [-79.423098, 43.662403]}}, {"type": "Feature", "properties": {"station_id": "7241", "name": "519 Church St", "address": "519 Church St", "capacity": 12, "rental_methods": ["KEY", "TRANSITCARD", "PHONE"], "physical_configuration": "SMARTMAPFRAME", "altitude": 0.0, "groups": ["P7241-7024"], "obcn": "437-992-6115", "nearby_distance": 1000.0}, "geometry": {"type": "Point", "coordinates": [-79.381155, 43.666874]}}, {"type": "Feature", "properties": {"station_id": "7242", "name": "Lake Shore Blvd W / Ontario Dr", "address": "Lake Shore Blvd W / Ontario Dr (Ontario Place)", "capacity": 35, "rental_methods": ["KEY", "TRANSITCARD", "CREDITCARD", "PHONE"], "physical_configuration": "REGULAR", "altitude": 0.0, "groups": [], "obcn": "647-669-1038", "nearby_distance": 1000.0}, "geometry": {"type": "Point", "coordinates": [-79.420317, 43.630254]}}, {"type": "Feature", "properties": {"station_id": "7243", "name": "Exhibition GO Station", "address": "Exhibition GO Station", "capacity": 14, "rental_methods": ["KEY", "TRANSITCARD", "CREDITCARD", "PHONE"], "physical_configuration": "REGULAR", "altitude": 0.0, "groups": [], "obcn": "647-404-4533", "nearby_distance": 1000.0}, "geometry": {"type": "Point", "coordinates": [-79.4187711, 43.6352007]}}, {"type": "Feature", "properties": {"station_id": "7244", "name": "Dufferin Gate - SMART", "address": "Dufferin Gate", "capacity": 16, "rental_methods": ["KEY", "TRANSITCARD", "PHONE"], "physical_configuration": "SMARTMAPFRAME", "altitude": 0.0, "groups": [], "obcn": "647-669-0734", "nearby_distance": 1000.0}, "geometry": {"type": "Point", "coordinates": [-79.425679, 43.633473]}}, {"type": "Feature", "properties": {"station_id": "7245", "name": "Tecumseth St / Queen St W - SMART", "address": "Tecumseth St / Queen St W", "capacity": 9, "rental_methods": ["KEY", "TRANSITCARD", "PHONE"], "physical_configuration": "SMARTMAPFRAME", "altitude": 0.0, "groups": ["P7245-7046"], "obcn": "437-992-2358", "nearby_distance": 1000.0}, "geometry": {"type": "Point", "coordinates": [-79.406468, 43.646552]}}, {"type": "Feature", "properties": {"station_id": "7246", "name": "Yonge St / Bloor St", "address": "Yonge St / Bloor St", "capacity": 14, "rental_methods": ["KEY", "TRANSITCARD", "CREDITCARD", "PHONE"], "physical_configuration": "REGULAR", "altitude": 0.0, "groups": ["P7276-7246"], "obcn": "647-669-3238", "nearby_distance": 1000.0}, "geometry": {"type": "Point", "coordinates": [-79.386532, 43.669969]}}, {"type": "Feature", "properties": {"station_id": "7247", "name": "Howard Park Ave / Dundas St W - SMART", "address": "Howard Park Ave / Dundas St W", "capacity": 12, "rental_methods": ["KEY", "TRANSITCARD", "PHONE"], "physical_configuration": "SMARTMAPFRAME", "altitude": 0.0, "groups": ["P7229-7247"], "obcn": "437-992-0352", "nearby_distance": 1000.0}, "geometry": {"type": "Point", "coordinates": [-79.4486, 43.6521]}}, {"type": "Feature", "properties": {"station_id": "7248", "name": "Baldwin Ave / Spadina Ave - SMART", "address": "Baldwin Ave / Spadina Ave", "capacity": 20, "rental_methods": ["KEY", "TRANSITCARD", "PHONE"], "physical_configuration": "SMARTMAPFRAME", "altitude": 0.0, "groups": [], "obcn": "437-992-0713", "nearby_distance": 1000.0}, "geometry": {"type": "Point", "coordinates": [-79.398448, 43.654905]}}, {"type": "Feature", "properties": {"station_id": "7249", "name": "Dovercourt Rd / Harrison St (Green P) - SMART", "address": "Dovercourt Rd / Harrison St (Green P) - SMART", "capacity": 12, "rental_methods": ["KEY", "TRANSITCARD", "PHONE"], "physical_configuration": "SMARTMAPFRAME", "altitude": 0.0, "groups": ["P7249-7209"], "obcn": "437-992-5539", "nearby_distance": 1000.0}, "geometry": {"type": "Point", "coordinates": [-79.423742, 43.651145]}}, {"type": "Feature", "properties": {"station_id": "7250", "name": "St. George St / Russell St - SMART", "address": "St. George St / Russell St", "capacity": 16, "rental_methods": ["KEY", "TRANSITCARD", "PHONE"], "physical_configuration": "SMARTMAPFRAME", "altitude": 0.0, "groups": ["P7250-7358"], "obcn": "647-338-0572", "nearby_distance": 1000.0}, "geometry": {"type": "Point", "coordinates": [-79.397107, 43.660296]}}, {"type": "Feature", "properties": {"station_id": "7251", "name": "The Royal Ontario Museum (Bloor St Entrance)", "address": "The Royal Ontario Museum (Bloor St Entrance)", "capacity": 19, "rental_methods": ["KEY", "TRANSITCARD", "CREDITCARD", "PHONE"], "physical_configuration": "REGULAR", "altitude": 0.0, "groups": [], "obcn": "647-402-3730", "nearby_distance": 1000.0}, "geometry": {"type": "Point", "coordinates": [-79.3946235999697, 43.668500046272165]}}, {"type": "Feature", "properties": {"station_id": "7252", "name": "Robert St / Bloor St W - SMART", "address": "Robert St / Bloor St W", "capacity": 18, "rental_methods": ["KEY", "TRANSITCARD", "PHONE"], "physical_configuration": "SMARTMAPFRAME", "altitude": 0.0, "groups": [], "obcn": "437-9924908", "nearby_distance": 1000.0}, "geometry": {"type": "Point", "coordinates": [-79.404998, 43.665846]}}, {"type": "Feature", "properties": {"station_id": "7253", "name": "John St  / Mercer St - SMART", "address": "John St / Mercer St - SMART", "capacity": 12, "rental_methods": ["KEY", "TRANSITCARD", "PHONE"], "physical_configuration": "SMARTMAPFRAME", "altitude": 0.0, "groups": ["P7253-7053"], "obcn": "647-649-4986", "nearby_distance": 1000.0}, "geometry": {"type": "Point", "coordinates": [-79.3895, 43.6461]}}, {"type": "Feature", "properties": {"station_id": "7256", "name": "Vanauley St / Queen St W - SMART", "address": "Vanauley St / Queen St W", "capacity": 12, "rental_methods": ["KEY", "TRANSITCARD", "PHONE"], "physical_configuration": "SMARTMAPFRAME", "altitude": 0.0, "groups": ["P7256-7069"], "obcn": "437-992-6550", "nearby_distance": 1000.0}, "geometry": {"type": "Point", "coordinates": [-79.39838, 43.648437]}}, {"type": "Feature", "properties": {"station_id": "7257", "name": "Dundas St W / St. Patrick St", "address": "Dundas St W / St. Patrick St", "capacity": 19, "rental_methods": ["KEY", "TRANSITCARD", "CREDITCARD", "PHONE"], "physical_configuration": "REGULAR", "altitude": 0.0, "groups": [], "obcn": "647-400-9727", "nearby_distance": 1000.0}, "geometry": {"type": "Point", "coordinates": [-79.3895315, 43.6545174]}}, {"type": "Feature", "properties": {"station_id": "7258", "name": "Queen St E / Rushbrooke Ave", "address": "Queen St E / Rushbrooke Ave", "capacity": 15, "rental_methods": ["KEY", "TRANSITCARD", "CREDITCARD", "PHONE"], "physical_configuration": "REGULAR", "altitude": 0.0, "groups": [], "obcn": "647-504-9410", "nearby_distance": 1000.0}, "geometry": {"type": "Point", "coordinates": [-79.3323698, 43.6626628]}}, {"type": "Feature", "properties": {"station_id": "7259", "name": "Lower Spadina Ave / Lake Shore Blvd", "address": "Lower Spadina Ave / Lake Shore Blvd W", "capacity": 19, "rental_methods": ["KEY", "TRANSITCARD", "CREDITCARD", "PHONE"], "physical_configuration": "REGULAR", "altitude": 0.0, "groups": [], "obcn": "647-402-7126", "nearby_distance": 1000.0}, "geometry": {"type": "Point", "coordinates": [-79.39192, 43.638497]}}, {"type": "Feature", "properties": {"station_id": "7260", "name": "Spadina Ave / Adelaide St W", "address": "Spadina Ave / Adelaide St W", "capacity": 15, "rental_methods": ["KEY", "TRANSITCARD", "CREDITCARD", "PHONE"], "physical_configuration": "REGULAR", "altitude": 0.0, "groups": [], "obcn": "647-712-8927", "nearby_distance": 1000.0}, "geometry": {"type": "Point", "coordinates": [-79.3953394, 43.6472019]}}, {"type": "Feature", "properties": {"station_id": "7261", "name": "Queens Quay E / Lower Sherbourne St", "address": "Queens Quay E / Lower Sherbourne", "capacity": 27, "rental_methods": ["KEY", "TRANSITCARD", "CREDITCARD", "PHONE"], "physical_configuration": "REGULAR", "altitude": 0.0, "groups": [], "obcn": "437-688-8691", "nearby_distance": 1000.0}, "geometry": {"type": "Point", "coordinates": [-79.364898, 43.645215]}}, {"type": "Feature", "properties": {"station_id": "7262", "name": "Wychwood Ave / Benson Ave - SMART", "address": "Wychwood Ave / Benson Ave", "capacity": 16, "rental_methods": ["KEY", "TRANSITCARD", "PHONE"], "physical_configuration": "SMARTMAPFRAME", "altitude": 0.0, "groups": [], "obcn": "437-992-6472", "nearby_distance": 1000.0}, "geometry": {"type": "Point", "coordinates": [-79.4229684, 43.6809164]}}, {"type": "Feature", "properties": {"station_id": "7263", "name": "Walton St / Elizabeth St - SMART", "address": "Walton St / Elizabeth St", "capacity": 20, "rental_methods": ["KEY", "TRANSITCARD", "PHONE"], "physical_configuration": "SMARTMAPFRAME", "altitude": 0.0, "groups": [], "obcn": "437-992-6002", "nearby_distance": 1000.0}, "geometry": {"type": "Point", "coordinates": [-79.38631, 43.657838]}}, {"type": "Feature", "properties": {"station_id": "7264", "name": "Bloor St E / Huntley St - SMART", "address": "Bloor St E / Huntley St", "capacity": 16, "rental_methods": ["KEY", "TRANSITCARD", "PHONE"], "physical_configuration": "SMARTMAPFRAME", "altitude": 0.0, "groups": [], "obcn": "437-992-3239", "nearby_distance": 1000.0}, "geometry": {"type": "Point", "coordinates": [-79.379173, 43.671535]}}, {"type": "Feature", "properties": {"station_id": "7265", "name": "Wallace Ave / Symington Ave - SMART", "address": "Wallace Ave / Symington Ave", "capacity": 12, "rental_methods": ["KEY", "TRANSITCARD", "PHONE"], "physical_configuration": "SMARTMAPFRAME", "altitude": 0.0, "groups": ["P7265-7237"], "obcn": "437-992-0966", "nearby_distance": 1000.0}, "geometry": {"type": "Point", "coordinates": [-79.449534, 43.661324]}}, {"type": "Feature", "properties": {"station_id": "7266", "name": "Victoria Park Subway Station - SMART", "address": "Victoria Park Subway Station", "capacity": 20, "rental_methods": ["KEY", "TRANSITCARD", "PHONE"], "physical_configuration": "SMARTMAPFRAME", "altitude": 0.0, "groups": [], "obcn": "437-992-7115", "nearby_distance": 1000.0}, "geometry": {"type": "Point", "coordinates": [-79.2889842, 43.6940155]}}, {"type": "Feature", "properties": {"station_id": "7267", "name": "Dundas St E / Pembroke St - SMART", "address": "Dundas St E / Pembroke St", "capacity": 16, "rental_methods": ["KEY", "TRANSITCARD", "PHONE"], "physical_configuration": "SMARTMAPFRAME", "altitude": 0.0, "groups": [], "obcn": "437-992-1458", "nearby_distance": 1000.0}, "geometry": {"type": "Point", "coordinates": [-79.372346, 43.658295]}}, {"type": "Feature", "properties": {"station_id": "7268", "name": "111 Bond St (North of Dundas St E)  - SMART", "address": "111 Bond St (North of Dundas St E)", "capacity": 16, "rental_methods": ["KEY", "TRANSITCARD", "PHONE"], "physical_configuration": "SMARTMAPFRAME", "altitude": 0.0, "groups": [], "obcn": "437-992-1826", "nearby_distance": 1000.0}, "geometry": {"type": "Point", "coordinates": [-79.378497, 43.656927]}}, {"type": "Feature", "properties": {"station_id": "7269", "name": "Toronto Eaton Centre (Yonge St)", "address": "Toronto Eaton Centre (Yonge St)", "capacity": 14, "rental_methods": ["KEY", "TRANSITCARD", "CREDITCARD", "PHONE"], "physical_configuration": "REGULAR", "altitude": 0.0, "groups": [], "obcn": "647-669-0729", "nearby_distance": 1000.0}, "geometry": {"type": "Point", "coordinates": [-79.380653, 43.655431]}}, {"type": "Feature", "properties": {"station_id": "7270", "name": "Church St / Dundas St E - SMART", "address": "Church St / Dundas St E", "capacity": 15, "rental_methods": ["KEY", "TRANSITCARD", "PHONE"], "physical_configuration": "SMARTMAPFRAME", "altitude": 0.0, "groups": [], "obcn": "437-992-0805", "nearby_distance": 1000.0}, "geometry": {"type": "Point", "coordinates": [-79.377257, 43.657024]}}, {"type": "Feature", "properties": {"station_id": "7271", "name": "Yonge St / Alexander St - SMART", "address": "Yonge St / Alexander St", "capacity": 18, "rental_methods": ["KEY", "TRANSITCARD", "PHONE"], "physical_configuration": "SMARTMAPFRAME", "altitude": 0.0, "groups": [], "obcn": "437-992-3627", "nearby_distance": 1000.0}, "geometry": {"type": "Point", "coordinates": [-79.383572, 43.662862]}}, {"type": "Feature", "properties": {"station_id": "7272", "name": "Yonge St / Dundonald St - SMART", "address": "Yonge St / Dundonald St", "capacity": 12, "rental_methods": ["KEY", "TRANSITCARD", "CREDITCARD", "PHONE"], "physical_configuration": "REGULAR", "altitude": 0.0, "groups": ["P7272-7051"], "obcn": "437-992-6086", "nearby_distance": 1000.0}, "geometry": {"type": "Point", "coordinates": [-79.384796, 43.665801]}}, {"type": "Feature", "properties": {"station_id": "7273", "name": "Bay St / Charles St - SMART", "address": "Bay St / Charles St W", "capacity": 20, "rental_methods": ["KEY", "TRANSITCARD", "PHONE"], "physical_configuration": "SMARTMAPFRAME", "altitude": 0.0, "groups": [], "obcn": "437-992-7265", "nearby_distance": 1000.0}, "geometry": {"type": "Point", "coordinates": [-79.38891, 43.668153]}}, {"type": "Feature", "properties": {"station_id": "7274", "name": "Queen's Park Cres E / Grosvenor St - SMART", "address": "Queen's Park Cres E / Grosvenor St", "capacity": 12, "rental_methods": ["KEY", "TRANSITCARD", "PHONE"], "physical_configuration": "SMARTMAPFRAME", "altitude": 0.0, "groups": ["P7274-7026"], "obcn": "437-992-0939", "nearby_distance": 1000.0}, "geometry": {"type": "Point", "coordinates": [-79.389682, 43.661803]}},